City,State,Country,Data_Source,WMO_Number,Latitude,Longitude,Time_Zone,Elevation
MIDLAND,TX,USA,TMY2-23023,722650,31.93,-102.2,-6,871
Harrison Faa Ap,AR,USA,TMY3,723446,36.27,-93.15,-6,419
Grand Island Central Ne Regio,NE,USA,TMY3,725520,40.97,-98.32,-6,561
FARGO,ND,USA,TMY2-14914,727530,46.9,-96.8,-6,274
Kinston Stallings Afb,NC,USA,TMY3,723067,35.32,-77.63,-5,29
New Orleans Alvin Callender F,LA,USA,TMY3,722316,29.82,-90.02,-6,2
DALIAN/DAIREN/LUDA,-,CHN,SWERA,546620,38.9,121.63,8,97
Dongtai,Jiangsu,CHN,CSWD,582510,32.87,120.32,8,4.3
Traverse City,MI,USA,TMY--14850,726387,44.73,-85.58,-5,190
WACO,TX,USA,TMY2-13959,722560,31.62,-97.22,-6,155
Jackson Hole,WY,USA,TMY3,725776,43.6,-110.73,-7,2016
WILMINGTON,NC,USA,TMY2-13748,723013,34.27,-77.9,-5,9
Lakeview  Awos,OR,USA,TMY3,725976,42.17,-120.4,-8,1441
HONOLULU,HI,USA,TMY2-22521,911820,21.33,-157.92,-10,5
LEXINGTON,KY,USA,TMY2-93820,724220,38.03,-84.6,-5,301
Morgantown Hart Field,WV,USA,TMY3,724176,39.65,-79.92,-5,378
AUSTIN,TX,USA,TMY2-13958,722540,30.3,-97.7,-6,189
Caldwell Essex Co,NJ,USA,TMY3,724094,40.88,-74.28,-5,53
ASHEVILLE,NC,USA,TMY2-03812,723150,35.43,-82.53,-5,661
Lanai,HI,USA,TMY3,911905,20.78,-156.95,-10,409
Lexington Bluegrass Ap,KY,USA,TMY3,724220,38.03,-84.6,-5,294
LOS_ANGELES,CA,USA,TMY2-23174,722950,33.93,-118.4,-8,32
Chicago Midway Ap,IL,USA,TMY3,725340,41.78,-87.75,-6,186
Cedar Rapids Municipal Ap,IA,USA,TMY3,725450,41.88,-91.72,-6,256
Fort Benning Lawson,GA,USA,TMY3,722250,32.35,-85,-6,88
Bismarck,ND,USA,TMY--24011,727640,46.77,-100.75,-6,506
Vance Afb,OK,USA,TMY3,723535,36.33,-97.92,-6,408
Wausau Municipal Arpt,WI,USA,TMY3,726463,44.92,-89.63,-6,366
Tianjin,Tianjin,CHN,CSWD,545270,39.08,117.07,8,2.5
SEMIPALATINSK,-,KAZ,IWEC Data,361770,50.35,80.25,6,196
Yangjiang,Guangdong,CHN,CSWD,596630,21.87,111.97,8,23.3
YOUNGSTOWN,OH,USA,TMY2-14852,725250,41.27,-80.67,-5,361
Chicago/Midway,IL,USA,TMY--14819,725340,41.78,-87.75,-6,187
Pocatello,ID,USA,TMY--24156,725780,42.92,-112.6,-7,1365
DHAKA/TEJGAON_(MIL),-,BGD,SWERA,419230,23.77,90.38,6,9
Mobile Downtown Ap,AL,USA,TMY3,722235,30.63,-88.07,-6,8
DAGGETT,CA,USA,TMY2-23161,723815,34.87,-116.78,-8,588
Springfield,IL,USA,TMY--93822,724390,39.85,-89.67,-6,187
Kelso Wb Ap,WA,USA,TMY3,727924,46.13,-122.9,-8,5
Abbotsford,BC,CAN,WYEC2-B-24288,711080,49.03,-122.37,-8,58
Daytona Beach,FL,USA,TMY--12834,722056,29.18,-81.05,-5,11
Chanute Martin Johnson Ap,KS,USA,TMY3,724507,37.67,-95.48,-6,298
Bismarck Municipal Arpt  Isis,ND,USA,TMY3,727640,46.77,-100.77,-7,502
Aurora State,OR,USA,TMY3,726959,45.25,-122.77,-8,60
RECIFE,-,BRA,IWEC Data,828990,-8.1,-34.88,-3,19
Winchester Rgnl,VA,USA,TMY3,724053,39.15,-78.15,-5,222
Raoyang,Hebei,CHN,CSWD,546060,38.23,115.73,8,19
White Plains Westchester Co A,NY,USA,TMY3,725037,41.07,-73.72,-5,122
Manitowac Muni Awos,WI,USA,TMY3,726455,44.13,-87.68,-6,198
Estherville Muni,IA,USA,TMY3,726499,43.4,-94.75,-6,401
Healy River Airport,AK,USA,TMY3,702647,63.88,-149.02,-9,396
Belleville Scott Afb,IL,USA,TMY3,724338,38.55,-89.85,-6,135
Lanzhou,Gansu,CHN,CSWD,528890,36.05,103.88,8,1517.2
ULAANBATAAR,-,MNG,IWEC Data,442920,47.93,106.98,8,1316
Minqin,Gansu,CHN,CSWD,526810,38.63,103.08,8,1367.5
Madoi,Qinghai,CHN,CSWD,560330,34.92,98.22,8,4272.3
Lijiang,Yunnan,CHN,CSWD,566510,26.87,100.22,8,2392.4
Yushe,Shanxi,CHN,CSWD,537870,37.07,112.98,8,1041.4
Birmingham Municipal Ap,AL,USA,TMY3,722280,33.57,-86.75,-6,189
CLEVELAND,OH,USA,TMY2-14820,725240,41.4,-81.85,-5,245
Wusu,Xinjiang Uygur,CHN,CSWD,513460,44.43,84.67,8,478.7
Salina Municipal Ap,KS,USA,TMY3,724586,38.82,-97.67,-6,385
Marathon Airport,FL,USA,TMY3,722016,24.73,-81.05,-5,2
Lingshan,Guangxi Zhuang,CHN,CSWD,594460,22.42,109.3,8,66.6
Martinsburg Eastern Wv Reg Ap,WV,USA,TMY3,724177,39.4,-77.98,-5,162
KALISPELL,MT,USA,TMY2-24146,727790,48.3,-114.27,-7,904
Winnemucca Municipal Arpt,NV,USA,TMY3,725830,40.9,-117.8,-8,1310
Resolute,NU,CAN,WYEC2-B-17901,719240,74.72,-94.98,-6,67
Hailisu,Nei Mongol,CHN,CSWD,532310,41.4,106.4,8,1509.6
MARSABIT,-,KEN,SWERA,636410,2.3,37.9,3,1345
Wilmington International Arpt,NC,USA,TMY3,723013,34.27,-77.9,-5,9
Jodhpur,Rajasthan,IND,ISHRAE,423390,26.3,73.02,5.5,217
Sterling/Washington Du,VA,USA,TMY--93734,724030,38.95,-77.45,-5,98
Truth or Consequences,NM,USA,TMY--93045,722710,33.23,-107.25,-7,1478
Mobridge,SD,USA,TMY3,726685,45.53,-100.43,-7,508
Dickinson Municipal Ap,ND,USA,TMY3,727645,46.8,-102.8,-7,788
Melbourne Regional Ap,FL,USA,TMY3,722040,28.12,-80.65,-5,11
Baudette International Ap,MN,USA,TMY3,727476,48.72,-94.6,-6,330
Bangalore,Karnataka,IND,ISHRAE,432950,12.97,77.58,5.5,921
Cherry Point Mcas,NC,USA,TMY3,723090,34.9,-76.88,-5,11
Harrison Marion Rgn,WV,USA,TMY3,724175,39.28,-80.23,-5,380
BRASILIA,-,BRA,IWEC Data,833780,-15.87,-47.93,-3,1061
Texarkana Webb Field,AR,USA,TMY3,723418,33.45,-94,-6,110
Hanksville,UT,USA,TMY3,724735,38.37,-110.72,-7,1313
DELINGHA,-,CHN,SWERA,527370,37.37,97.37,8,2982
Duluth,MN,USA,TMY--14913,727450,46.83,-92.18,-6,432
Kuandian,Liaoning,CHN,CSWD,544930,40.72,124.78,8,260.1
Austin,TX,USA,TMY--13958,722540,30.3,-97.7,-6,189
Anda,Heilongjiang,CHN,CSWD,508540,46.38,125.32,8,149.3
BISMARCK,ND,USA,TMY2-24011,727640,46.77,-100.75,-6,502
Tonopah Airport,NV,USA,TMY3,724855,38.07,-117.08,-8,1655
Miami Opa Locka,FL,USA,TMY3,722024,25.9,-80.28,-5,3
The Dalles Municipal Arpt,WA,USA,TMY3,726988,45.62,-121.15,-8,73
Dekalb Peachtree,GA,USA,TMY3,722196,33.87,-84.3,-5,313
SYLHET_OSMANI,-,BGD,SWERA,418910,24.9,91.88,6,35
Lemoore Reeves Nas,CA,USA,TMY3,747020,36.33,-119.95,-8,73
Nanping,Fujian,CHN,CSWD,588340,26.65,118.17,8,125.1
Cheyenne Municipal Arpt,WY,USA,TMY3,725640,41.15,-104.8,-7,1867
BARROW,AK,USA,TMY2-27502,700260,71.3,-156.78,-9,4
ULSAN,-,KOR,IWEC Data,471520,35.55,129.32,9,33
BANGKOK,-,THA,IWEC Data,484560,13.92,100.6,7,12
Bemidji Municipal,MN,USA,TMY3,727550,47.5,-94.93,-6,420
Mosinee Central Wi,WI,USA,TMY3,726465,44.78,-89.67,-6,389
Hooper Bay,AK,USA,TMY3,702186,61.52,-166.15,-9,6
Lansing Capital City Arpt,MI,USA,TMY3,725390,42.78,-84.58,-5,256
Kunming,Yunnan,CHN,CSWD,567780,25.02,102.68,8,1892.4
QUILLAYUTE,WA,USA,TMY2-94240,727970,47.95,-124.55,-8,55
New Delhi,Delhi,IND,ISHRAE,421820,28.58,77.2,5.5,216
NAIROBI,-,KEN,IWEC Data,637400,-1.32,36.92,3,1624
Manassas Muni Awos,VA,USA,TMY3,724036,38.72,-77.52,-5,59
Bryce Cnyn Faa Ap,UT,USA,TMY3,724756,37.7,-112.15,-7,2312
Ogden Hill Afb,UT,USA,TMY3,725755,41.12,-111.97,-7,1459
Comox,BC,CAN,WYEC2-B-24292,718930,49.72,-124.9,-8,24
Macon,GA,USA,TMY-- 3813,722170,32.7,-83.65,-5,110
New York Laguardia Arpt,NY,USA,TMY3,725030,40.78,-73.88,-5,3
Port Heiden,AK,USA,TMY3,703330,56.95,-158.62,-9,29
CHANGSHA,-,CHN,SWERA,576870,28.23,112.87,8,68
Darlag,Qinghai,CHN,CSWD,560460,33.75,99.65,8,3967.5
Inuvik Ua,NT,CAN,WYEC2-B-22258,719570,68.3,-133.48,-7,68
Midland International Ap,TX,USA,TMY3,722650,31.95,-102.18,-6,872
Wichita Falls/Sheppard,TX,USA,TMY--13966,723510,33.98,-98.5,-6,314
Daggett Barstow Daggett Ap,CA,USA,TMY3,723815,34.85,-116.8,-8,586
Norfolk Nas,VA,USA,TMY3,723085,36.95,-76.28,-5,10
WUHAN/NANHU,-,CHN,SWERA,574940,30.62,114.13,8,23
Esfahan,-,IRN,ITMY,408000,32.37,51.4,3,1550
Chicago Ohare Intl Ap,IL,USA,TMY3,725300,41.98,-87.92,-6,201
Nacogdoches  Awos,TX,USA,TMY3,722499,31.58,-94.72,-6,108
Ganzhou,Jiangxi,CHN,CSWD,579930,25.87,115,8,137.5
PORTO_VELHO(CV/MIL),-,BRA,SWERA,828240,-8.77,-63.92,-4,88
Charleston,SC,USA,TMY--13880,722080,32.9,-80.03,-5,15
Westhampton Gabreski Ap,NY,USA,TMY3,744865,40.85,-72.63,-5,20
ARCATA,CA,USA,TMY2-24283,725945,40.98,-124.1,-8,69
Shangqiu,Henan,CHN,CSWD,580050,34.45,115.67,8,50.1
Wugang,Hunan,CHN,CSWD,578530,26.73,110.63,8,341
HILO,HI,USA,TMY2-21504,912850,19.72,-155.07,-10,11
Livermore Municipal,CA,USA,TMY3,724927,37.7,-121.82,-8,121
Miyun,Beijing,CHN,CSWD,544160,40.38,116.87,8,71.8
Tulsa International Airport,OK,USA,TMY3,723560,36.2,-95.88,-6,198
Annette Island Ap,AK,USA,TMY3,703980,55.05,-131.57,-9,33
Yuma,AZ,USA,TMY--23195,722800,32.66,-114.6,-7,62
Little Falls  Awos,MN,USA,TMY3,726578,45.95,-94.35,-6,342
KANSAS_CITY,MO,USA,TMY2-03947,724460,39.3,-94.72,-6,315
Block Island State Arpt,RI,USA,TMY3,725058,41.17,-71.58,-5,34
Saint George  Awos,UT,USA,TMY3,724754,37.08,-113.6,-7,896
Columbus Metropolitan Arpt,GA,USA,TMY3,722255,32.52,-84.95,-6,120
North Platte,NE,USA,TMY--24023,725620,41.13,-100.68,-6,849
Tengchong,Yunnan,CHN,CSWD,567390,25.02,98.5,8,1654.6
CASPER,WY,USA,TMY2-24089,725690,42.92,-106.47,-7,1612
Xiamen,Fujian,CHN,CSWD,591340,24.48,118.07,8,139.4
Naval Air Station,ME,USA,TMY3,743920,43.9,-69.93,-5,21
MINNEAPOLIS,MN,USA,TMY2-14922,726580,44.88,-93.22,-6,255
Tyndall Afb,FL,USA,TMY3,747750,30.07,-85.58,-6,7
La Crosse Municipal Arpt,WI,USA,TMY3,726430,43.87,-91.25,-6,198
Lone Rock Faa Ap,WI,USA,TMY3,726416,43.2,-90.18,-6,219
Asheville Regional Arpt,NC,USA,TMY3,723150,35.43,-82.53,-5,652
Batesville  Awos,AR,USA,TMY3,723448,35.73,-91.65,-6,141
URUMQI,-,CHN,IWEC Data,514630,43.83,87.53,8,786
Boone Muni,IA,USA,TMY3,725486,42.05,-93.85,-6,354
Portland International Ap,OR,USA,TMY3,726980,45.6,-122.62,-8,6
Cadillac Wexford Co Ap,MI,USA,TMY3,726384,44.28,-85.42,-5,396
Anchorage Intl Ap,AK,USA,TMY3,702730,61.18,-150,-9,35
MOMBASA/MOI_INTL,-,KEN,SWERA,638200,-4.03,39.62,3,55
Felts Fld,WA,USA,TMY3,727856,47.68,-117.32,-8,610
TALLAHASSEE,FL,USA,TMY2-93805,722140,30.38,-84.37,-5,21
ANNETTE,AK,USA,TMY2-25308,703980,55.03,-131.57,-9,34
Sexton Summit,OR,USA,TMY3,725975,42.6,-123.37,-8,1168
Albuquerque,NM,USA,TMY--23050,723650,35.05,-106.62,-7,1620
Sacramento/Mather Fiel,CA,USA,TMY--23232,724830,38.55,-121.3,-8,29
Minfeng,Xinjiang Uygur,CHN,CSWD,518390,37.07,82.72,8,1409.5
Waterville  Awos,ME,USA,TMY3,726073,44.53,-69.68,-5,101
Bluefield Mercer Co  Nrel,WV,USA,TMY3,724125,37.27,-81.24,-5,803
Buffalo Niagara Intl Ap,NY,USA,TMY3,725280,42.93,-78.73,-5,215
Joslin Fld Magic Va  Twin Fall,ID,USA,TMY3,725866,42.55,-114.35,-7,1200
Jianou,Fujian,CHN,CSWD,587370,27.05,118.32,8,154.9
Keesler Afb,MS,USA,TMY3,747686,30.42,-88.92,-6,8
Franklin,PA,USA,TMY3,725267,41.38,-79.87,-5,470
Middletown Harrisburg Intl Ap,PA,USA,TMY3,725115,40.2,-76.77,-5,92
Harrisburg Capital City Arpt,PA,USA,TMY3,725118,40.22,-76.85,-5,104
Garze,Sichuan,CHN,CSWD,561460,31.62,100,8,3393.5
Yulin,Shaanxi,CHN,CSWD,536460,38.23,109.7,8,1057.5
Fosston Awos,MN,USA,TMY3,727505,47.58,-95.77,-6,388
Surat,Gujarat,IND,ISHRAE,428400,21.2,72.83,5.5,12
Chulitna,AK,USA,TMY3,702606,62.88,-149.83,-9,381
LANZHOU,-,CHN,SWERA,528890,36.05,103.88,8,1518
Las Cruces Intl,NM,USA,TMY3,722695,32.28,-106.92,-7,1393
Yuzhong,Gansu,CHN,CSWD,529830,35.87,104.15,8,1874.4
Newark International Arpt,NJ,USA,TMY3,725020,40.72,-74.18,-5,3
FLAGSTAFF,AZ,USA,TMY2-03103,723755,35.13,-111.67,-7,2135
Sault Ste Marie Sanderson Fie,MI,USA,TMY3,727340,46.47,-84.35,-5,219
Ottumwa Industrial Ap,IA,USA,TMY3,725465,41.1,-92.45,-6,257
Bengbu,Anhui,CHN,CSWD,582210,32.95,117.38,8,18.7
TAMPA,FL,USA,TMY2-12842,722110,27.97,-82.53,-5,3
Fairbanks Intl Arpt,AK,USA,TMY3,702610,64.82,-147.85,-9,133
Williamsport Regional Ap,PA,USA,TMY3,725140,41.25,-76.92,-5,158
Olathe Johnson Co Industrial,KS,USA,TMY3,724475,38.83,-94.88,-6,331
Xingyi,Guizhou,CHN,CSWD,579020,25.43,105.18,8,1378.5
Mobile,AL,USA,TMY--13894,722230,30.68,-88.25,-6,67
Shenandoah Muni,IA,USA,TMY3,725467,40.75,-95.42,-6,296
Yanchi,Ningxia Hui,CHN,CSWD,537230,37.8,107.38,8,1349.3
Davison Aaf,VA,USA,TMY3,724037,38.72,-77.18,-5,27
St Cloud Regional Arpt,MN,USA,TMY3,726550,45.55,-94.05,-6,311
Yanan,Shaanxi,CHN,CSWD,538450,36.6,109.5,8,958.5
Corpus Christi Nas,TX,USA,TMY3,722515,27.68,-97.28,-6,6
Brunswick Malcolm Mckinnon Ap,GA,USA,TMY3,722137,31.15,-81.38,-5,4
Quincy Muni Baldwin Fld,IL,USA,TMY3,724396,39.93,-91.2,-6,233
YAKIMA,WA,USA,TMY2-24243,727810,46.57,-120.53,-8,325
Dubuque Regional Ap,IA,USA,TMY3,725470,42.4,-90.7,-6,322
Mount Vernon  Awos,IL,USA,TMY3,724335,38.32,-88.87,-6,146
Flippin  Awos,AR,USA,TMY3,723447,36.3,-92.47,-6,350
Suide,Shaanxi,CHN,CSWD,537540,37.5,110.22,8,929.7
Storm Lake,IA,USA,TMY3,725496,42.6,-95.23,-6,454
ALBANY,NY,USA,TMY2-14735,725180,42.75,-73.8,-5,89
Marietta Dobbins Afb,GA,USA,TMY3,722270,33.92,-84.52,-5,330
OSAKA,-,JPN,IWEC Data,477710,34.78,135.45,9,15
Macdill Afb,FL,USA,TMY3,747880,27.85,-82.52,-5,8
Ft Lnrd Wd Aaf,MO,USA,TMY3,724457,37.75,-92.15,-6,351
Jian,Jiangxi,CHN,CSWD,577990,27.05,114.92,8,71.2
MUMBAI,-,IND,IWEC Data,430030,19.12,72.85,5.5,14
Jamestown  Awos,NY,USA,TMY3,725235,42.15,-79.27,-5,525
Killeen Muni  Awos,TX,USA,TMY3,722575,31.08,-97.68,-6,258
Corpus Christi Intl Arpt  Ut,TX,USA,TMY3,722510,27.88,-97.63,-6,6
Mc Gregor  Awos,TX,USA,TMY3,722563,31.48,-97.32,-6,180
Devils Lake Awos,ND,USA,TMY3,727573,48.12,-98.92,-6,443
Green Bay,WI,USA,TMY--14898,726450,44.48,-88.13,-6,214
Menominee  Awos,MI,USA,TMY3,726487,45.13,-87.63,-6,191
COLOMBO/KATUNAYAKE,-,LKA,SWERA,434500,7.17,79.88,6,8
Lebanon Municipal,NH,USA,TMY3,726116,43.63,-72.3,-5,182
San Diego North Island Nas,CA,USA,TMY3,722906,32.7,-117.2,-8,15
BUFFALO,NY,USA,TMY2-14733,725280,42.93,-78.73,-5,215
Tonghe,Heilongjiang,CHN,CSWD,509630,45.97,128.73,8,108.6
LANSING,MI,USA,TMY2-14836,725390,42.78,-84.6,-5,256
Linxi,Nei Mongol,CHN,CSWD,541150,43.6,118.07,8,799.5
HUADE,-,CHN,SWERA,533910,41.9,114,8,1484
Keokuk Muni,IA,USA,TMY3,725456,40.47,-91.43,-6,205
Pullman Moscow Rgnl,WA,USA,TMY3,727857,46.75,-117.12,-8,778
Dayton Wright Patterson Afb,OH,USA,TMY3,745700,39.83,-84.05,-5,250
Melfa Accomack Arpt,VA,USA,TMY3,724026,37.65,-75.77,-5,15
Homestead Afb,FL,USA,TMY3,722026,25.48,-80.38,-5,5
Toledo Winlock Mem,WA,USA,TMY3,727926,46.48,-122.8,-8,113
Big Delta/Ft Greely,AK,USA,TMY--26415,702670,64,-145.73,-9,391
Las Vegas/Int'l Airpor,NV,USA,TMY--23169,723860,36.08,-115.17,-8,664
Nyingchi,Tibet,CHN,CSWD,563120,29.67,94.33,8,2991.8
Nanjing,Jiangsu,CHN,CSWD,582380,32.83,118.8,8,7.1
Portland Troutdale,OR,USA,TMY3,726985,45.55,-122.4,-8,11
Ogden Hinkley Airport,UT,USA,TMY3,725750,41.2,-112.02,-7,1362
SAN_FRANCISCO,CA,USA,TMY2-23234,724940,37.62,-122.38,-8,5
Clovis Cannon Afb,NM,USA,TMY3,722686,34.38,-103.32,-7,1309
Falls City Brenner,NE,USA,TMY3,725533,40.08,-95.6,-6,300
Jacksonville Nas,FL,USA,TMY3,722065,30.23,-81.67,-5,9
Evansville Regional Ap,IN,USA,TMY3,724320,38.05,-87.53,-6,116
Kuujjuarapik,PQ,CAN,WYEC2-B-15701,719050,55.28,-77.77,-5,12
South Lake Tahoe,CA,USA,TMY3,725847,38.9,-120,-8,1909
HOUSTON,TX,USA,TMY2-12960,722430,29.98,-95.37,-6,33
Laredo AFB,TX,USA,TMY--12907,722520,27.53,-99.46,-6,152
ST._LOUIS,MO,USA,TMY2-13994,724340,38.75,-90.38,-6,172
Trinidad Las Animas County Ap,CO,USA,TMY3,724645,37.27,-104.33,-7,1751
Palm Springs Thermal Ap,CA,USA,TMY3,747187,33.63,-116.17,-8,-34
Solon,Nei Mongol,CHN,CSWD,508340,46.6,121.22,8,499.7
BRIDGEPORT,CT,USA,TMY2-94702,725040,41.17,-73.13,-5,2
AREQUIPA,-,PER,IWEC Data,847520,-16.32,-71.55,-5,2520
Dong Ujimqin Qi,Nei Mongol,CHN,CSWD,509150,45.52,116.97,8,838.9
Cape Hatteras,NC,USA,TMY--93729,723040,35.27,-75.55,-5,3
Mansfield Lahm Municipal Arpt,OH,USA,TMY3,725246,40.82,-82.52,-5,395
Massena,NY,USA,TMY--94725,726223,44.93,-74.85,-5,65
Brookings  Awos,SD,USA,TMY3,726515,44.3,-96.82,-6,502
Wolf Point Intl  Fort Peck   S,MT,USA,TMY3,727686,48.31,-105.1,-7,634
Whidbey Island NAS,WA,USA,TMY--24255,690230,48.35,-122.66,-8,10
SHIMONOSEKI,-,JPN,IWEC Data,477620,33.95,130.93,9,19
Rockport Aransas Co,TX,USA,TMY3,722524,28.08,-97.05,-6,8
Oscoda Wurtsmith Afb,MI,USA,TMY3,726395,44.45,-83.4,-5,188
Billings,MT,USA,TMY--24033,726770,45.8,-108.53,-7,1088
Anaktuvuk Pass,AK,USA,TMY3,701625,68.13,-151.73,-9,657
Benxi,Liaoning,CHN,CSWD,543460,41.32,123.78,8,185.4
Akron Akron Canton Reg Ap,OH,USA,TMY3,725210,40.92,-81.43,-5,368
Lakehurst NAS,NJ,USA,TMY--14780,724096,40.03,-74.7,-5,34
TUNIS,-,TUN,IWEC Data,607150,36.83,10.23,1,4
BINGHAMTON,NY,USA,TMY2-04725,725150,42.22,-75.98,-5,499
Xingtai,Hebei,CHN,CSWD,537980,37.07,114.5,8,77.3
Joplin Municipal Ap,MO,USA,TMY3,723495,37.15,-94.5,-6,297
Al Minya,Al Minya,EGY,ETMY,623870,28.08,30.73,2,40
Kake Seaplane Base,AK,USA,TMY3,703855,56.97,-133.95,-9,0
Staunton Shenandoah,VA,USA,TMY3,724105,38.27,-78.9,-5,366
GRAND_ISLAND,NE,USA,TMY2-14935,725520,40.97,-98.32,-6,566
Kona Intl At Keahol,HI,USA,TMY3,911975,19.73,-156.05,-10,15
Pueblo Memorial Ap,CO,USA,TMY3,724640,38.28,-104.5,-7,1428
Mengla,Yunnan,CHN,CSWD,569690,21.48,101.57,8,631.9
Donggang,Jilin,CHN,CSWD,542840,42.1,127.57,8,774.2
Dover Afb,DE,USA,TMY3,724088,39.13,-75.47,-5,7
Kansas City Downtown Ap,MO,USA,TMY3,724463,39.12,-94.6,-6,226
Fairmont Muni Awos,MN,USA,TMY3,726586,43.65,-94.42,-6,354
Iliamna Arpt,AK,USA,TMY3,703400,59.75,-154.92,-9,57
Shangzhi,Heilongjiang,CHN,CSWD,509680,45.22,127.97,8,189.7
Greenville Municipal,MS,USA,TMY3,722356,33.48,-90.98,-6,42
Willow Grove Nas,PA,USA,TMY3,724086,40.2,-75.15,-5,102
Rocky Mount Wilson,NC,USA,TMY3,723068,35.85,-77.9,-5,50
SALT_LAKE_CITY,UT,USA,TMY2-24127,725720,40.77,-111.97,-7,1288
INTERNATIONAL_FALLS,MN,USA,TMY2-14918,727470,48.57,-93.38,-6,361
Washington  Awos,PA,USA,TMY3,725117,40.13,-80.28,-5,361
Safford  Amos,AZ,USA,TMY3,722747,32.82,-109.68,-7,950
PROVIDENCE,RI,USA,TMY2-14765,725070,41.73,-71.43,-5,19
Indore,Madhya Pradesh,IND,ISHRAE,427540,22.72,75.8,5.5,567
Binghamton,NY,USA,TMY-- 4725,725150,42.22,-75.98,-5,497
Tucumcari,NM,USA,TMY--23048,723676,35.18,-103.6,-7,1239
Huimin Xian,Shandong,CHN,CSWD,547250,37.48,117.53,8,11.7
Salmon Lemhi  Awos,ID,USA,TMY3,726865,45.12,-113.88,-7,1233
Springfield Hartnes,VT,USA,TMY3,726115,43.35,-72.52,-5,176
Dehradun,Uttar Pradesh,IND,ISHRAE,421110,30.32,78.03,5.5,682
SAN_ANTONIO,TX,USA,TMY2-12921,722536,29.53,-98.47,-6,242
CALCUTTA,-,IND,IWEC Data,428090,22.65,88.45,5.5,6
Dalian,Liaoning,CHN,CSWD,546620,38.9,121.63,8,91.5
Chaoyang,Shandong,CHN,CSWD,548080,36.23,115.67,8,37.8
Pease Intl Tradepor,NH,USA,TMY3,726055,43.08,-70.82,-5,31
Dutch Harbor,AK,USA,TMY3,704890,53.9,-166.55,-9,4
Allahabad,Uttar Pradesh,IND,ISHRAE,424750,25.45,81.73,5.5,98
Ismailia,Al Ismailiyah,EGY,ETMY,624400,30.6,32.25,2,13
Panjim,Goa,IND,ISHRAE,431920,15.48,73.82,5.5,60
Cortez Montezuma Co,CO,USA,TMY3,724767,37.3,-108.63,-7,1803
Peoria Greater Peoria Ap,IL,USA,TMY3,725320,40.67,-89.68,-6,199
Wichita Col  Jabara,KS,USA,TMY3,724504,37.75,-97.22,-6,433
Crossville Memorial Ap,TN,USA,TMY3,723265,35.95,-85.08,-6,569
Belgaum,Maharashtra,IND,ISHRAE,431980,15.52,74.32,5.5,753
West Palm Beach,FL,USA,TMY--12844,722030,26.68,-80.12,-5,6
Port Arthur Jefferson County,TX,USA,TMY3,722410,29.95,-94.02,-6,5
ALBUQUERQUE,NM,USA,TMY2-23050,723650,35.05,-106.62,-7,1619
Shreveport Regional Arpt,LA,USA,TMY3,722480,32.45,-93.82,-6,77
BILLINGS,MT,USA,TMY2-24033,726770,45.8,-108.53,-7,1088
El Arish,Shamal Sina,EGY,ETMY,623370,31.08,33.82,2,32
Rhinelander Oneida,WI,USA,TMY3,727415,45.63,-89.47,-6,507
Bethel Airport,AK,USA,TMY3,702190,60.78,-161.83,-9,38
Chino Airport,CA,USA,TMY3,722899,33.97,-117.63,-8,198
BOISE,ID,USA,TMY2-24131,726810,43.57,-116.22,-7,874
Minhe,Qinghai,CHN,CSWD,528760,36.32,102.85,8,1813.9
Chongqing Shapingba,Chongqing,CHN,CSWD,575160,29.58,106.47,8,259.1
Atlanta,GA,USA,TMY--13874,722190,33.65,-84.42,-5,315
LANZHOU,-,CHN,IWEC Data,528890,36.05,103.88,8,1518
Qumarleb,Qinghai,CHN,CSWD,560210,34.13,95.78,8,4175
Baicheng,Jilin,CHN,CSWD,509360,45.63,122.83,8,155.3
Altoona Blair Co Arpt,PA,USA,TMY3,725126,40.3,-78.32,-5,451
Columbus Port Columbus Intl A,OH,USA,TMY3,724280,39.98,-82.88,-5,247
Ephrata Ap Fcwos,WA,USA,TMY3,727826,47.3,-119.52,-8,384
Oakland Metropolitan Arpt,CA,USA,TMY3,724930,37.72,-122.22,-8,2
Wushaoling,Gansu,CHN,CSWD,527870,37.2,102.87,8,3045.1
Goose,NF,CAN,WYEC2-B-15601,718160,53.32,-60.37,-3.5,49
NANJING/NANKING,-,CHN,SWERA,582380,32,118.8,8,12
Muskoka,ON,CAN,WYEC2-B-04704,716300,44.97,-79.3,-5,282
Belem/Val de Caes,-,BRA,SWERA,821930,-1.38,-48.48,-3,16
Kotzebue Ralph Wein Memorial,AK,USA,TMY3,701330,66.88,-162.6,-9,3
Dayton International Airport,OH,USA,TMY3,724290,39.9,-84.22,-5,305
Oklahoma City Tinker Afb,OK,USA,TMY3,723540,35.42,-97.38,-6,384
Meridian Naas,MS,USA,TMY3,722345,32.55,-88.57,-6,83
The Pas,MB,CAN,WYEC2-B-25004,718670,53.97,-101.1,-6,271
Salisbury Wicomico Co Ap,MD,USA,TMY3,724045,38.33,-75.52,-5,15
NORTH_PLATTE,NE,USA,TMY2-24023,725620,41.13,-100.68,-6,849
GLASGOW,MT,USA,TMY2-94008,727680,48.22,-106.62,-7,700
Petersburg,AK,USA,TMY3,703860,56.8,-132.95,-9,33
Coeur D Alene Awos,ID,USA,TMY3,727834,47.77,-116.82,-8,707
Memphis,TN,USA,TMY--13893,723340,35.05,-90,-6,87
Kingston,ON,CAN,WYEC2-B-CAN15,718200,44.22,-76.6,-5,93
Bijie,Guizhou,CHN,CSWD,577070,27.3,105.28,8,1510.6
Fergus Falls Awos,MN,USA,TMY3,726560,46.28,-96.15,-6,361
San Angelo Mathis Field,TX,USA,TMY3,722630,31.35,-100.5,-6,584
BRISTOL,TN,USA,TMY2-13877,723183,36.48,-82.4,-5,459
Yumenzhen,Gansu,CHN,CSWD,524360,40.27,97.03,8,1526
SOUTH_BEND,IN,USA,TMY2-14848,725350,41.7,-86.32,-5,236
Karamay,Xinjiang Uygur,CHN,CSWD,512430,45.62,84.85,8,449.5
Southwest Florida I,FL,USA,TMY3,722108,26.53,-81.75,-5,9
Houston D W  Hooks,TX,USA,TMY3,722429,30.07,-95.55,-6,46
Xichang,Sichuan,CHN,CSWD,565710,27.9,102.27,8,1590.9
Jackson,MS,USA,TMY-- 3940,722350,32.32,-90.08,-6,101
Climate Zone 9,CA,USA,CTZRV2,722880,34.15,-118.15,-8,263.3
Oxford  Awos,CT,USA,TMY3,725029,41.48,-73.13,-5,222
ADDIS_ABABA/BOLE,-,ETH,SWERA,634500,8.98,38.8,3,2355
Patuxent River NAS,MD,USA,TMY--13721,724040,38.3,-76.41,-5,14
Rifle Garfield Rgnl,CO,USA,TMY3,725717,39.53,-107.72,-7,1691
Honolulu,HI,USA,TMY--22521,911820,21.35,-157.93,-10,5
Asheville,NC,USA,TMY-- 3812,723150,35.43,-82.55,-5,661
MILES_CITY,MT,USA,TMY2-24037,742300,46.43,-105.87,-7,803
PUTTALAM,-,LKA,SWERA,434240,8.03,79.83,6,2
HARRISBURG,PA,USA,TMY2-14751,725115,40.22,-76.85,-5,106
Louisville Standiford Field,KY,USA,TMY3,724230,38.18,-85.73,-5,147
Truckee Tahoe,CA,USA,TMY3,725846,39.32,-120.13,-8,1798
Talkeetna State Arpt,AK,USA,TMY3,702510,62.32,-150.1,-9,105
Waco,TX,USA,TMY--13959,722560,31.62,-97.22,-6,155
Whittier,AK,USA,TMY3,702757,60.77,-148.68,-9,9
Oakland Co Intl,MI,USA,TMY3,726375,42.67,-83.42,-5,306
Pierre,SD,USA,TMY--24025,726686,44.38,-100.28,-6,531
SAO_PAULO/CONGONHAS,-,BRA,SWERA,837800,-23.62,-46.65,-3,803
Victoria Regional Ap,TX,USA,TMY3,722550,28.87,-96.93,-6,35
Tyler Pounds Fld,TX,USA,TMY3,722448,32.35,-95.4,-6,166
Glasgow Intl Arpt,MT,USA,TMY3,727680,48.22,-106.62,-7,699
ATHENS,GA,USA,TMY2-13873,723110,33.95,-83.32,-5,244
Congwu,Fujian,CHN,CSWD,591330,24.9,118.92,8,21.8
Tucson International Ap,AZ,USA,TMY3,722740,32.13,-110.95,-7,777
Concord Municipal Arpt,NH,USA,TMY3,726050,43.2,-71.5,-5,106
Great Falls Intl Arpt,MT,USA,TMY3,727750,47.47,-111.38,-7,1117
Lawton Municipal,OK,USA,TMY3,723575,34.57,-98.42,-6,338
Muskegon County Arpt,MI,USA,TMY3,726360,43.17,-86.23,-5,190
San Antonio Kelly Field Afb,TX,USA,TMY3,722535,29.38,-98.58,-6,208
Fort Knox Godman Aaf,KY,USA,TMY3,724240,37.9,-85.97,-5,239
Homer,AK,USA,TMY--25507,703410,59.65,-151.48,-9,25
Dallas Redbird Arpt,TX,USA,TMY3,722599,32.68,-96.87,-6,201
Greenwood Leflore Arpt,MS,USA,TMY3,722359,33.5,-90.08,-6,47
Skagway Airport,AK,USA,TMY3,703620,59.47,-135.3,-9,9
Caldwell  Awos,ID,USA,TMY3,726813,43.63,-116.63,-7,740
Malad City,ID,USA,TMY3,725786,42.15,-112.28,-7,1362
Bangor/Dow AFB,ME,USA,TMY--14601,726088,44.8,-68.8,-5,56
Sydney,NS,CAN,WYEC2-B-14646,717070,46.17,-60.05,-4,62
Arxan,Nei Mongol,CHN,CSWD,507270,47.17,119.93,8,997.2
MUSKEGON,MI,USA,TMY2-14840,726360,43.17,-86.25,-5,191
Mora Muni  Awos,MN,USA,TMY3,727475,45.88,-93.27,-6,309
King Salmon,AK,USA,TMY--25503,703260,58.68,-156.65,-9,15
Fort Worth Alliance,TX,USA,TMY3,722594,32.98,-97.32,-6,226
Nanxian,Hunan,CHN,CSWD,575740,29.37,112.4,8,36
Climate Zone 4,CA,USA,CTZRV2,724945,37.4,-122.4,-8,30
Hissar,Haryana,IND,ISHRAE,421310,29.17,75.73,5.5,221
Birmingham,AL,USA,TMY--13876,722280,33.57,-86.75,-6,192
Jamestown Municipal Arpt,ND,USA,TMY3,727535,46.92,-98.68,-6,455
Presque Isle Municip,ME,USA,TMY3,727130,46.68,-68.05,-5,163
Emporia Municipal Ap,KS,USA,TMY3,724556,38.33,-96.18,-6,368
Nantucket Memorial Ap,MA,USA,TMY3,725063,41.25,-70.07,-5,14
Youngstown,OH,USA,TMY--14852,725250,41.27,-80.67,-5,361
Sioux Falls,SD,USA,TMY--14944,726510,43.58,-96.73,-6,435
Chittagong/Patenga (CI,-,BGD,SWERA,419780,22.27,91.82,6,6
Lihue,HI,USA,TMY--22536,911650,21.98,-159.35,-10,45
Hot Springs Ingalls,VA,USA,TMY3,724115,37.95,-79.83,-5,1156
Huma,Heilongjiang,CHN,CSWD,503530,51.72,126.65,8,177.4
Lingling,Hunan,CHN,CSWD,578660,26.23,111.62,8,172.6
Fremont Muni Arpt,NE,USA,TMY3,725564,41.45,-96.52,-6,379
Utica Oneida County Ap,NY,USA,TMY3,725197,43.15,-75.38,-5,217
ANURADHAPURA_(AFB),-,LKA,SWERA,434210,8.33,80.42,6,89
Natchez Hardy Awos,MS,USA,TMY3,722357,31.62,-91.3,-6,83
BRASILIA_(CIV/MIL),-,BRA,SWERA,833780,-15.87,-47.93,-3,1061
Miami Intl Ap,FL,USA,TMY3,722020,25.82,-80.3,-5,11
Lake Charles,LA,USA,TMY-- 3937,722400,30.12,-93.22,-6,10
Yibin,Sichuan,CHN,CSWD,564920,28.8,104.6,8,340.8
Suichuan,Jiangxi,CHN,CSWD,578960,26.33,114.5,8,126.1
Dingbian,Shaanxi,CHN,CSWD,537250,37.58,107.58,8,1360.3
CUIABA/MARECHAL_RON,-,BRA,SWERA,833620,-15.65,-56.1,-4,182
LEWISTOWN,MT,USA,TMY2-24036,726776,47.05,-109.45,-7,1264
Springdale Muni,AR,USA,TMY3,723434,36.18,-94.12,-6,412
MIAMI,FL,USA,TMY2-12839,722020,25.8,-80.27,-5,2
Hailun,Heilongjiang,CHN,CSWD,507560,47.43,126.97,8,239.2
New York City/Central,NY,USA,TMY--94728,0.94728,40.78,-73.96,-5,40
Shache,Xinjiang Uygur,CHN,CSWD,518110,38.43,77.27,8,1231.2
St Louis/Int'l Airport,MO,USA,TMY--13994,724340,38.75,-90.37,-6,172
Havre City County Ap,MT,USA,TMY3,727770,48.55,-109.77,-7,788
Urumqi,Xinjiang Uygur,CHN,CSWD,514630,43.78,87.65,8,935
Kuqa,Xinjiang Uygur,CHN,CSWD,516440,41.72,83.07,8,1081.9
Lamar Municipal,CO,USA,TMY3,724636,38.07,-102.68,-7,1129
Grand Prairie,AB,CAN,WYEC2-e-94803,719400,55.18,-118.88,-7,669
Flying Cloud,MN,USA,TMY3,726579,44.82,-93.45,-6,283
Hoboksar,Xinjiang Uygur,CHN,CSWD,511560,46.78,85.72,8,1291.6
Hoonah,AK,USA,TMY3,702607,58.08,-135.45,-9,6
Hill City Municipal Ap,KS,USA,TMY3,724655,39.38,-99.83,-6,667
Hefei,Anhui,CHN,CSWD,583210,31.87,117.23,8,26.8
Colorado Springs Muni Ap,CO,USA,TMY3,724660,38.82,-104.72,-7,1872
Hays Muni  Awos,KS,USA,TMY3,724518,38.85,-99.27,-6,609
Muscle Shoals Regional Ap,AL,USA,TMY3,723235,34.75,-87.6,-6,165
Bozeman Gallatin Field,MT,USA,TMY3,726797,45.8,-111.15,-7,1349
Le Mars,IA,USA,TMY3,725484,42.78,-96.2,-6,365
Minneapolis St Paul IntL Arp,MN,USA,TMY3,726580,44.88,-93.23,-6,254
Lompoc  Awos,CA,USA,TMY3,722895,34.67,-120.47,-8,27
LONG_BEACH,CA,USA,TMY2-23129,722970,33.82,-118.15,-8,17
Shanwei,Guangdong,CHN,CSWD,595010,22.8,115.37,8,17.3
Santa Barbara Municipal Ap,CA,USA,TMY3,723925,34.43,-119.85,-8,3
NEW DELHI,-,IND,IWEC Data,421820,28.58,77.2,5.5,216
Fairchild Afb,WA,USA,TMY3,727855,47.63,-117.65,-8,743
YAKUTAT,AK,USA,TMY2-25339,703610,59.52,-139.67,-9,9
Virginia Tech Arpt,VA,USA,TMY3,724113,37.22,-80.42,-5,650
Pittsburgh/Pittsburgh,PA,USA,TMY--94823,725200,40.5,-80.22,-5,373
Baton Rouge,LA,USA,TMY--13970,722317,30.53,-91.15,-6,21
St Lucie Co Intl,FL,USA,TMY3,722103,27.48,-80.37,-5,7
Beaumont/Port Arthur,TX,USA,TMY--12917,722410,29.95,-94.02,-6,7
AUGUSTA,GA,USA,TMY2-03820,722180,33.37,-81.97,-5,45
China Lake Naf,CA,USA,TMY3,746120,35.68,-117.68,-8,677
Fort Worth/Meacham Fie,TX,USA,TMY-- 3927,722600,32.82,-97.37,-6,216
COVINGTON,KY,USA,TMY2-93814,724210,39.07,-84.67,-5,271
Auburn Opelika Apt,AL,USA,TMY3,722284,32.62,-85.43,-6,236
AHMEDABAD,-,IND,IWEC Data,426470,23.07,72.63,5.5,55
Astoria Regional Airport,OR,USA,TMY3,727910,46.15,-123.88,-8,3
Litchfield Muni,MN,USA,TMY3,726583,45.1,-94.5,-6,347
Fargo,ND,USA,TMY--14914,727530,46.9,-96.8,-6,274
Grand Junction Walker Field,CO,USA,TMY3,724760,39.13,-108.53,-7,1475
Butte Bert Mooney Arpt,MT,USA,TMY3,726785,45.95,-112.5,-7,1689
Manhattan Rgnl,KS,USA,TMY3,724555,39.13,-96.67,-6,330
AKRON,OH,USA,TMY2-14895,725210,40.92,-81.43,-5,377
Luke Afb,AZ,USA,TMY3,722785,33.55,-112.37,-7,331
Alexandria Municipal Ap,MN,USA,TMY3,726557,45.88,-95.4,-6,433
Gustavus,AK,USA,TMY3,703670,58.42,-135.7,-9,12
Juneau IntL Arpt,AK,USA,TMY3,703810,58.35,-134.58,-9,4
Laramie General Brees Field,WY,USA,TMY3,725645,41.32,-105.68,-7,2215
Bishop Airport,CA,USA,TMY3,724800,37.37,-118.35,-8,1250
Chan Gurney Muni,SD,USA,TMY3,726525,42.92,-97.38,-6,408
Stewart Field,NY,USA,TMY3,725038,41.5,-74.1,-5,177
Grindstone Island,PQ,CAN,WYEC2-B-CAN13,-,47.38,-61.87,-5,59
Cedar City,UT,USA,TMY--93129,724755,37.7,-113.1,-7,1714
Elko,NV,USA,TMY--24121,725825,40.83,-115.78,-8,1565
Binghamton Edwin A Link Field,NY,USA,TMY3,725150,42.2,-75.98,-5,488
San Diego Miramar Nas,CA,USA,TMY3,722930,32.87,-117.13,-8,140
Norfolk,VA,USA,TMY--13737,723080,36.9,-76.2,-5,9
Mianyang,Sichuan,CHN,CSWD,561960,31.45,104.73,8,522.7
SAO PAULO,-,BRA,IWEC Data,837800,-23.62,-46.65,-3,803
Erenhot,Nei Mongol,CHN,CSWD,530680,43.65,111.97,8,964.7
RANGPUR,-,BGD,SWERA,418590,25.73,89.23,6,34
Bowling Green Warren Co Ap,KY,USA,TMY3,746716,36.98,-86.43,-6,161
Mercury Desert Rock Ap  Surfra,NV,USA,TMY3,723870,36.63,-116.02,-8,935
BIG_DELTA,AK,USA,TMY2-26415,702670,64,-145.73,-9,388
JIMMA,-,ETH,SWERA,634020,7.67,36.83,3,1676
South Bend Michiana Rgnl Ap,IN,USA,TMY3,725350,41.7,-86.33,-5,236
W  Chicago Du Page,IL,USA,TMY3,725305,41.92,-88.25,-6,231
MOYALE_LOWER_(ODA),-,KEN,SWERA,636190,3.53,39.05,3,1097
Lander Hunt Field,WY,USA,TMY3,725760,42.82,-108.73,-7,1694
Monticello Muni,IA,USA,TMY3,725475,42.23,-91.17,-6,259
Tupelo C D Lemons Arpt,MS,USA,TMY3,723320,34.27,-88.77,-6,110
MINOT,ND,USA,TMY2-24013,727676,48.27,-101.28,-6,522
Climate Zone 7,CA,USA,CTZRV2,722900,32.7,-117.2,-8,4
Climate Zone 12,CA,USA,CTZRV2,724830,38.5,-121.5,-8,5
MIHO (CIV/JASDF),-,JPN,IWEC Data,477430,35.48,133.25,9,9
Jorhat,Assam,IND,ISHRAE,424230,26.73,94.17,5.5,90
Wiscasset,ME,USA,TMY3,727135,43.97,-69.72,-5,21
Pitt Greenville Arp,NC,USA,TMY3,723065,35.63,-77.4,-5,8
PORTO_NACIONAL_ARPT,-,BRA,SWERA,830630,-10.7,-48.4,-3,290
HEFEI/LUOGANG,-,CHN,SWERA,583210,31.87,117.23,8,36
Flint,MI,USA,TMY--14826,726370,42.97,-83.75,-5,233
Yakutat,AK,USA,TMY--25339,703610,59.52,-139.67,-9,9
Bridgeport Sikorsky Memorial,CT,USA,TMY3,725040,41.18,-73.15,-5,3
Altay,Xinjiang Uygur,CHN,CSWD,510760,47.73,88.08,8,735.3
Columbia,SC,USA,TMY--13883,723100,33.95,-81.12,-5,69
Dongsheng,Nei Mongol,CHN,CSWD,535430,39.83,109.98,8,1461.9
Barrow W Post W Rogers Arpt  N,AK,USA,TMY3,700260,71.32,-156.62,-9,10
Billings Logan IntL Arpt,MT,USA,TMY3,726770,45.8,-108.55,-7,1087
Shreveport,LA,USA,TMY--13957,722480,32.47,-93.82,-6,79
Miles City Municipal Arpt,MT,USA,TMY3,742300,46.43,-105.88,-7,801
Andrews Afb,MD,USA,TMY3,745940,38.82,-76.87,-5,86
Holloman Afb,NM,USA,TMY3,747320,32.85,-106.1,-7,1248
MCGRATH,AK,USA,TMY2-26510,702310,62.97,-155.62,-9,103
Oceana Nas,VA,USA,TMY3,723075,36.82,-76.03,-5,8
Xifengzhen,Gansu,CHN,CSWD,539230,35.73,107.63,8,1421
MEMPHIS,TN,USA,TMY2-13893,723340,35.05,-89.98,-6,87
Alice Intl Ap,TX,USA,TMY3,722517,27.73,-98.03,-6,53
Hydaburg Seaplane,AK,USA,TMY3,703884,55.2,-132.83,-9,0
Roanoke Regional Ap,VA,USA,TMY3,724110,37.32,-79.97,-5,350
WATERLOO,IA,USA,TMY2-94910,725480,42.55,-92.4,-6,265
Valparaiso Elgin Afb,FL,USA,TMY3,722210,30.48,-86.52,-6,20
Abilene,TX,USA,TMY--13962,722660,32.42,-99.68,-6,546
Baie Comeau,PQ,CAN,WYEC2-B-14627,711870,49.13,-68.2,-5,22
MERIDIAN,MS,USA,TMY2-13865,722340,32.33,-88.75,-6,94
Whidbey Island Nas,WA,USA,TMY3,690230,48.35,-122.67,-8,10
St Louis Spirit Of St Louis A,MO,USA,TMY3,724345,38.65,-90.65,-6,141
Songpan,Sichuan,CHN,CSWD,561820,32.65,103.57,8,2850.7
SALVADOR,-,BRA,SWERA,832480,-13.02,-38.52,-3,51
Kodiak Airport,AK,USA,TMY3,703500,57.75,-152.5,-9,5
Bairin Zuo Qi,Nei Mongol,CHN,CSWD,540270,43.98,119.4,8,486.2
Jefferson City Mem,MO,USA,TMY3,724458,38.58,-92.15,-6,167
BIRMINGHAM,AL,USA,TMY2-13876,722280,33.57,-86.75,-6,192
BAKERSFIELD,CA,USA,TMY2-23155,723840,35.42,-119.05,-8,150
Detroit City Airport,MI,USA,TMY3,725375,42.4,-83,-5,190
Yuanping,Shanxi,CHN,CSWD,536730,38.73,112.72,8,828.2
Hoquiam Ap,WA,USA,TMY3,727923,46.98,-123.93,-8,4
VOI,-,KEN,SWERA,637930,-3.4,38.57,3,579
Orr,MN,USA,TMY3,726544,48.02,-92.87,-6,397
OMAHA,NE,USA,TMY2-94918,725500,41.37,-96.52,-6,404
Detroit Metropolitan Arpt,MI,USA,TMY3,725370,42.22,-83.35,-5,194
Baltimore Blt Washngtn IntL,MD,USA,TMY3,724060,39.17,-76.68,-5,45
Golden Tri Awos,MS,USA,TMY3,723307,33.45,-88.58,-6,80
Victoria Int'l,BC,CAN,WYEC2-B-24297,717990,48.65,-123.43,-8,19
Chadron Municipal Ap,NE,USA,TMY3,725636,42.83,-103.08,-7,1011
Findlay Airport,OH,USA,TMY3,725366,41.02,-83.67,-5,244
BAOJI,-,CHN,SWERA,570160,34.35,107.13,8,610
Dayton/Wright-Paterson,OH,USA,TMY--93815,745700,39.83,-84.05,-5,251
Boxian,Anhui,CHN,CSWD,581020,33.87,115.77,8,37.7
Leting,Hebei,CHN,CSWD,545390,39.43,118.88,8,10
MAKINDU,-,KEN,SWERA,637660,-2.28,37.83,3,1000
Redwood Falls Muni,MN,USA,TMY3,726556,44.55,-95.08,-6,312
Medicine Hat,AB,CAN,WYEC2-B-25118,718720,50.02,-110.72,-7,716
Athens Ben Epps Ap,GA,USA,TMY3,723110,33.95,-83.33,-5,244
CONCORD,NH,USA,TMY2-14745,726050,43.2,-71.5,-5,105
Sturgeon Bay,WI,USA,TMY3,726458,44.85,-87.42,-5,221
Kenai Municipal Ap,AK,USA,TMY3,702590,60.58,-151.23,-9,26
Mason City,IA,USA,TMY--14940,725485,43.15,-93.33,-6,370
Yuma Intl Arpt,AZ,USA,TMY3,722800,32.67,-114.6,-7,63
TUCSON,AZ,USA,TMY2-23160,722740,32.12,-110.93,-7,779
Climate Zone 6,CA,USA,CTZRV2,722970,33.9,-118.5,-8,30
Youngstown Regional Airport,OH,USA,TMY3,725250,41.25,-80.67,-5,360
Saginaw Tri City Intl Ap,MI,USA,TMY3,726379,43.53,-84.08,-5,201
ULAANGOM,-,MNG,IWEC Data,442120,49.88,92.08,8,936
Lancaster Gen Wm Fox Field,CA,USA,TMY3,723816,34.73,-118.22,-8,713
TUOTUOHE/TANGGULASH,-,CHN,SWERA,560040,34.22,92.43,8,4535
RICHMOND,VA,USA,TMY2-13740,724010,37.5,-77.33,-5,50
Leesburg Godfrey,VA,USA,TMY3,724055,39.08,-77.57,-5,119
Kansas City IntL Arpt,MO,USA,TMY3,724460,39.3,-94.72,-6,298
ALLENTOWN,PA,USA,TMY2-14737,725170,40.65,-75.43,-5,117
JOHANNESBURG,-,ZAF,IWEC Data,683680,-26.13,28.23,2,1700
Winslow,AZ,USA,TMY--23194,723740,35.03,-110.71,-7,1490
Tunxi,Anhui,CHN,CSWD,585310,29.72,118.28,8,142.7
KODIAK,AK,USA,TMY2-25501,703500,57.75,-152.33,-9,34
EMBU,-,KEN,SWERA,637200,-0.5,37.45,3,1493
Minot/Int'l Airport,ND,USA,TMY--24013,727676,48.27,-101.28,-6,523
Truth Or Consequences Muni Ap,NM,USA,TMY3,722710,33.23,-107.27,-7,1478
Goldsboro Seymour Johnson Afb,NC,USA,TMY3,723066,35.35,-77.97,-5,33
Wheeling Ohio County Ap,WV,USA,TMY3,724275,40.18,-80.65,-5,359
Charlotte,NC,USA,TMY--13881,723140,35.22,-80.93,-5,234
Anvik,AK,USA,TMY3,702075,62.65,-160.18,-9,99
Stampede Pass,WA,USA,TMY3,727815,47.28,-121.33,-8,1206
Erie,PA,USA,TMY--14860,725260,42.08,-80.18,-5,225
Shenyang,Liaoning,CHN,CSWD,543420,41.73,123.45,8,44.7
Laohekou,Hubei,CHN,CSWD,572650,32.38,111.67,8,90
St Louis Lambert IntL Arpt,MO,USA,TMY3,724340,38.75,-90.37,-6,173
Orlando Executive Ap,FL,USA,TMY3,722053,28.55,-81.33,-5,33
Wanyuan,Sichuan,CHN,CSWD,572370,32.07,108.03,8,674
SHERIDAN,WY,USA,TMY2-24029,726660,44.77,-106.97,-7,1209
Ironwood  Awos,MI,USA,TMY3,727445,46.53,-90.13,-6,375
Austin Mueller Municipal Ap  U,TX,USA,TMY3,722540,30.29,-97.74,-6,213
Akola,Maharashtra,IND,ISHRAE,429340,20.7,77.03,5.5,282
Hagerstown Rgnl Ric,MD,USA,TMY3,724066,39.7,-77.73,-5,220
Columbus Afb,MS,USA,TMY3,723306,33.65,-88.45,-6,68
Rogers  Awos,AR,USA,TMY3,723449,36.37,-94.1,-6,415
DAYTON,OH,USA,TMY2-93815,745700,39.9,-84.22,-5,306
Calgary Int'l,AB,CAN,WYEC2-B-25110,718770,51.12,-114.02,-7,1084
Grand Forks International Ap,ND,USA,TMY3,727576,47.95,-97.18,-6,256
La Crosse,WI,USA,TMY--14920,726430,43.87,-91.25,-6,202
Lovelock,NV,USA,TMY--24172,725805,40.06,-118.55,-8,1188
Santa Rosa  Awos,CA,USA,TMY3,724957,38.52,-122.82,-8,38
Burke Lakefront,OH,USA,TMY3,725245,41.52,-81.68,-5,182
Flagstaff Pulliam Arpt,AZ,USA,TMY3,723755,35.13,-111.67,-7,2132
Huoshan,Anhui,CHN,CSWD,583140,31.4,116.32,8,68.1
Shouxian,Anhui,CHN,CSWD,582150,32.55,116.78,8,22.7
Eveleth Muni  Awos,MN,USA,TMY3,727474,47.4,-92.5,-6,421
Kapalua,HI,USA,TMY3,911904,20.95,-156.63,-10,80
Tongzi,Guizhou,CHN,CSWD,576060,28.13,106.83,8,972
FORT_SMITH,AR,USA,TMY2-13964,723440,35.33,-94.37,-6,141
Tanana Ralph M Calhoun Mem Ap,AK,USA,TMY3,701780,65.17,-152.1,-9,71
Prescott,AZ,USA,TMY--23184,723723,34.65,-112.42,-7,1537
El Dorado Goodwin Field,AR,USA,TMY3,723419,33.22,-92.82,-6,77
Leadville Lake Co,CO,USA,TMY3,724673,39.22,-106.32,-7,3026
Goodland,KS,USA,TMY--23065,724650,39.37,-101.7,-6,1124
AMARILLO,TX,USA,TMY2-23047,723630,35.23,-101.7,-6,1098
WICHITA_FALLS,TX,USA,TMY2-13966,723510,33.97,-98.48,-6,314
Chitradurg,Karnataka,IND,ISHRAE,432330,14.13,76.27,5.5,733
Ratnagiri,Maharashtra,IND,ISHRAE,431100,16.98,73.33,5.5,67
Hutchinson  Awos,MN,USA,TMY3,726569,44.87,-94.38,-6,323
Ottawa Int'l,ON,CAN,WYEC2-B-04772,716280,45.32,-75.67,-5,114
Webster City,IA,USA,TMY3,725478,42.43,-93.87,-6,342
HOUGHTON,MI,USA,TMY2-94814,727440,47.17,-88.5,-5,329
Cincinnati Northern Ky Ap,KY,USA,TMY3,724210,39.05,-84.67,-5,265
TOSASHIMIZU,-,JPN,IWEC Data,478980,32.72,133.02,9,33
Wilkes Barre Scranton Intl Ap,PA,USA,TMY3,725130,41.33,-75.73,-5,284
Cedar City Municipal Ap,UT,USA,TMY3,724755,37.7,-113.1,-7,1703
Orlando Intl Arpt,FL,USA,TMY3,722050,28.43,-81.33,-5,29
Dongcheng,Anhui,CHN,CSWD,583190,31.07,116.95,8,85.4
Patterson Memorial,LA,USA,TMY3,722329,29.72,-91.33,-6,3
WUDU,-,CHN,SWERA,560960,33.4,104.92,8,1079
Trenton,ON,CAN,WYEC2-B-04715,716210,44.12,-77.53,-5,86
Rome R B Russell Ap,GA,USA,TMY3,723200,34.35,-85.17,-5,195
Jiexiu,Shanxi,CHN,CSWD,538630,37.03,111.92,8,743.9
Park Rapids Municipal Ap,MN,USA,TMY3,727453,46.9,-95.07,-6,437
GOA/PANJIM,-,IND,IWEC Data,431920,15.48,73.82,5.5,60
Denver-Stapleton,CO,USA,TMY--23062,724690,39.76,-104.86,-7,1611
RALEIGH,NC,USA,TMY2-13722,723060,35.87,-78.78,-5,134
North Adams,MA,USA,TMY3,725075,42.7,-73.17,-5,201
Olympia,WA,USA,TMY--24227,727920,46.97,-122.9,-8,61
MANDERA,-,KEN,SWERA,636240,3.93,41.87,3,231
PEORIA,IL,USA,TMY2-14842,725320,40.67,-89.68,-6,199
Cheyenne/Warren AFB,WY,USA,TMY--24018,725640,41.15,-104.82,-7,1872
Boston Logan IntL Arpt,MA,USA,TMY3,725090,42.37,-71.02,-5,6
Juneau,AK,USA,TMY--25309,703810,58.35,-134.58,-9,3
COMBOLCHA/DESSIE,-,ETH,SWERA,633330,11.08,39.72,3,1864
Dothan Municipal Ap,AL,USA,TMY3,722268,31.23,-85.43,-6,98
Grand Rapids Kent County Int,MI,USA,TMY3,726350,42.88,-85.52,-5,242
Mcguire Afb,NJ,USA,TMY3,724096,40.02,-74.6,-5,45
Howell,MI,USA,TMY3,725378,42.63,-83.98,-5,293
Mcconnell Afb,KS,USA,TMY3,724505,37.62,-97.27,-6,414
Clinton Muni  Awos,IA,USA,TMY3,725473,41.83,-90.33,-6,216
Quantico Mcas,VA,USA,TMY3,724035,38.5,-77.3,-5,4
Phillips Price Co,WI,USA,TMY3,726468,45.7,-90.4,-6,449
Burlington,VT,USA,TMY--14742,726170,44.47,-73.15,-5,104
DETROIT,MI,USA,TMY2-94847,725370,42.42,-83.02,-5,191
Albany County Ap,NY,USA,TMY3,725180,42.75,-73.8,-5,84
Amarillo International Ap  Can,TX,USA,TMY3,723630,34.99,-101.9,-6,1068
LAMU/MANDA_ISLAND,-,KEN,SWERA,637720,-2.27,40.83,3,6
ALGIERS,-,DZA,IWEC Data,603900,36.72,3.25,1,25
Yucca Flats,NV,USA,TMY-- 3133,723850,36.95,-116.05,-8,1196
Dulan Us,Qinghai,CHN,CSWD,528360,36.3,98.1,8,3191.1
Snohomish Co,WA,USA,TMY3,727937,47.9,-122.28,-8,189
Jixi,Heilongjiang,CHN,CSWD,509780,45.28,130.95,8,238.3
Xingcheng,Liaoning,CHN,CSWD,544550,40.58,120.7,8,10.5
Hayward Air Term,CA,USA,TMY3,724935,37.67,-122.12,-8,14
INDIANAPOLIS,IN,USA,TMY2-93819,724380,39.73,-86.28,-5,246
Hastings Municipal,NE,USA,TMY3,725525,40.6,-98.43,-6,596
Annette,AK,USA,TMY--25308,703980,55.03,-131.57,-9,34
GOODLAND,KS,USA,TMY2-23065,724650,39.37,-101.7,-7,1124
Climate Zone 02,CA,USA,CTZRV2,C00000,38.4,-122.7,-8,50
Hechi,Guangxi Zhuang,CHN,CSWD,590230,24.7,108.05,8,211
Nenana Municipal Ap,AK,USA,TMY3,702600,64.55,-149.1,-9,109
Southern Pines Awos,NC,USA,TMY3,723143,35.23,-79.4,-5,141
Bentonville  Awos,AR,USA,TMY3,723444,36.35,-94.22,-6,395
Moses Lake Grant County Ap,WA,USA,TMY3,727827,47.2,-119.32,-8,364
Fayetteville Drake Field,AR,USA,TMY3,723445,36,-94.17,-6,381
Saharanpur,Uttar Pradesh,IND,ISHRAE,5217,29.85,77.88,5.5,274
Montpelier Ap,VT,USA,TMY3,726145,44.2,-72.57,-5,343
Central Illinois Rg,IL,USA,TMY3,724397,40.47,-88.92,-6,272
Mountain Home Afb,ID,USA,TMY3,726815,43.05,-115.87,-7,912
Orlando,FL,USA,TMY--12841,722053,28.55,-81.33,-5,32
Cody Muni  Awos,WY,USA,TMY3,726700,44.52,-109.02,-7,1553
Lushi,Henan,CHN,CSWD,570670,34.05,111.03,8,568.8
Ely,NV,USA,TMY--23154,724860,39.28,-114.85,-8,1909
Barmer,Rajasthan,IND,ISHRAE,424350,25.75,71.38,5.5,194
DIRE_DAWA_(MIL/CIV),-,ETH,SWERA,634710,9.6,41.87,3,1146
Dongfang,Hainan,CHN,CSWD,598380,19.1,108.62,8,8.4
Fort Worth Meacham,TX,USA,TMY3,722596,32.82,-97.37,-6,209
Midland/Odessa,TX,USA,TMY--23023,722650,31.95,-102.18,-6,872
Barbers Point Nas,HI,USA,TMY3,911780,21.32,-158.07,-10,15
Knoxville,IA,USA,TMY3,725493,41.3,-93.12,-6,283
Shanghang,Fujian,CHN,CSWD,589180,25.05,116.42,8,198
HARARE,-,ZWE,IWEC Data,677750,-17.92,31.13,2,1503
Concord Concord Buchanan Fiel,CA,USA,TMY3,724936,38,-122.05,-8,7
Exi,Hubei,CHN,CSWD,574470,30.28,109.47,8,457.1
Jingdezhen,Jiangxi,CHN,CSWD,585270,29.3,117.2,8,61.5
GULKANA,AK,USA,TMY2-26425,702710,62.15,-145.45,-9,481
Shaoguan,Guangdong,CHN,CSWD,590820,24.68,113.6,8,61
Durango La Plata Co,CO,USA,TMY3,724625,37.15,-107.75,-7,2038
PAGRI,-,CHN,SWERA,557730,27.73,89.08,8,4301
Burlington,IA,USA,TMY--14931,725455,40.78,-91.13,-6,213
Buffalo,NY,USA,TMY--14733,725280,42.93,-78.73,-5,215
China Lake,CA,USA,TMY--93104,746120,35.68,-117.68,-8,676
Gray Aaf,WA,USA,TMY3,742070,47.08,-122.58,-8,90
TASHKENT,-,UZB,IWEC Data,384570,41.27,69.27,5,458
LA PAZ,-,BOL,IWEC Data,852010,-16.52,-68.18,-4,4042
TUCUMCARI,NM,USA,TMY2-23048,723676,35.18,-103.6,-7,1231
Univ Of Illinois Wi  Bondville,IL,USA,TMY3,725315,40.06,-88.37,-6,213
Hobart Municipal Ap,OK,USA,TMY3,723525,35,-99.05,-6,478
Plymouth Municipal,MA,USA,TMY3,725064,41.92,-70.73,-5,45
Fort Drum Wheeler S,NY,USA,TMY3,743700,44.05,-75.72,-5,211
NOME,AK,USA,TMY2-26617,702000,64.5,-165.43,-9,7
London,ON,CAN,WYEC2-B-94805,716230,43.03,-81.15,-5,278
Aniak Airport,AK,USA,TMY3,702320,61.58,-159.53,-9,26
SAULT_STE._MARIE,MI,USA,TMY2-14847,727340,46.47,-84.37,-5,221
Adak NAS,AK,USA,TMY--25704,704540,51.88,-176.65,-10,5
Sanford Muni  Awos,ME,USA,TMY3,726064,43.4,-70.72,-5,74
Bar Harbor  Awos,ME,USA,TMY3,726077,44.45,-68.37,-5,26
Decatur,IL,USA,TMY3,725316,39.83,-88.87,-6,213
South St Paul Muni,MN,USA,TMY3,726603,44.85,-93.15,-6,250
BOA_VISTA_(CIV/MIL),-,BRA,SWERA,820220,2.83,-60.7,-4,140
CHICAGO,IL,USA,TMY2-94846,725300,41.78,-87.75,-6,190
Soldotna,AK,USA,TMY3,702595,60.47,-151.03,-9,34
O Neill Baker Field,NE,USA,TMY3,725566,42.47,-98.68,-6,619
LODWAR,-,KEN,SWERA,636120,3.12,35.62,3,515
SACRAMENTO,CA,USA,TMY2-23232,724835,38.52,-121.5,-8,8
Jackson Mckellar Sipes Regl A,TN,USA,TMY3,723346,35.6,-88.92,-6,132
Palmdale Airport,CA,USA,TMY3,723820,34.63,-118.08,-8,769
Fulton Co Arpt Brow,GA,USA,TMY3,722195,33.77,-84.52,-5,263
Wise Lonesome Pine,VA,USA,TMY3,724117,36.98,-82.53,-5,817
International Falls,MN,USA,TMY--14918,727470,48.57,-93.38,-6,361
Duolun,Nei Mongol,CHN,CSWD,542080,42.18,116.47,8,1245.4
Fuzhou,Fujian,CHN,CSWD,588470,26.08,119.28,8,4
Alexandria Esler Regional Ap,LA,USA,TMY3,722487,31.4,-92.3,-6,34
Rock Springs,WY,USA,TMY--24027,725744,41.6,-109.07,-7,2060
Prince Rupert,BC,CAN,WYEC2-B-25353,718980,54.3,-130.43,-8,34
RIYADH,-,SAU,IWEC Data,404380,24.7,46.8,3,612
Fredericton,NB,CAN,WYEC2-B-14670,717000,45.87,-66.53,-4,20
Ellsworth Afb,SD,USA,TMY3,726625,44.15,-103.1,-7,980
Lincang,Yunnan,CHN,CSWD,569510,23.88,100.08,8,1502.4
KISII            _,-,KEN,SWERA,637090,-0.67,34.78,3,1493
Boise Air Terminal  Uo,ID,USA,TMY3,726810,43.62,-116.21,-7,701
Pipestone  Awos,MN,USA,TMY3,726566,43.98,-96.32,-6,529
Reading Spaatz Field,PA,USA,TMY3,725103,40.37,-75.97,-5,104
Sterling Rockfalls,IL,USA,TMY3,725326,41.75,-89.67,-6,197
Laconia Muni  Awos,NH,USA,TMY3,726155,43.57,-71.42,-5,166
Martinsville,VA,USA,TMY3,745985,36.63,-80.02,-5,287
Santa Maria Public Arpt,CA,USA,TMY3,723940,34.92,-120.47,-8,77
Smithers,BC,CAN,WYEC2-B-25225,719500,54.82,-127.18,-8,523
Gainesville Regional Ap,FL,USA,TMY3,722146,29.7,-82.28,-5,41
Akron/Canton,OH,USA,TMY--14895,725210,40.92,-81.43,-5,377
Abington,VA,USA,TMY3,724058,36.68,-82.03,-5,631
Turpan,Xinjiang Uygur,CHN,CSWD,515730,42.93,89.2,8,34.5
Nangqen,Qinghai,CHN,CSWD,561250,32.2,96.48,8,3643.7
NAKURU,-,KEN,SWERA,637140,-0.27,36.1,3,1901
Houston William P Hobby Ap,TX,USA,TMY3,722435,29.65,-95.28,-6,13
Show Low Municipal,AZ,USA,TMY3,723747,34.27,-110,-7,1954
Gulkana,AK,USA,TMY--26425,702710,62.15,-145.45,-9,481
Lake Hood Seaplane,AK,USA,TMY3,702725,61.18,-149.97,-9,22
Ramagundam,Andhra Pradesh,IND,ISHRAE,430860,18.77,79.43,5.5,156
KAHULUI,HI,USA,TMY2-22516,911900,20.9,-156.43,-10,15
Albany Dougherty County Ap,GA,USA,TMY3,722160,31.53,-84.18,-5,58
Kaiser Mem  Awos,MO,USA,TMY3,724459,38.1,-92.55,-6,265
Hotan,Xinjiang Uygur,CHN,CSWD,518280,37.13,79.93,8,1375
Zhumadian,Henan,CHN,CSWD,572900,33,114.02,8,82.7
Lucknow,Uttar Pradesh,IND,ISHRAE,423690,26.87,80.93,5.5,111
Gallup Sen Clarke Fld,NM,USA,TMY3,723627,35.52,-108.78,-7,1971
Galveston Scholes,TX,USA,TMY3,722420,29.3,-94.8,-6,16
Yichang,Hubei,CHN,CSWD,574610,30.7,111.3,8,133.1
Grand Canyon Natl P,AZ,USA,TMY3,723783,35.95,-112.15,-7,2065
Wendover Usaf Auxiliary Field,UT,USA,TMY3,725810,40.72,-114.03,-8,1291
Erie International Ap,PA,USA,TMY3,725260,42.08,-80.18,-5,222
Hattiesburg Laurel,MS,USA,TMY3,722348,31.47,-89.33,-6,93
Aurora Municipal,IL,USA,TMY3,744655,41.77,-88.47,-6,215
Jinzhou,Liaoning,CHN,CSWD,543370,41.68,121.12,8,65.9
Huili,Sichuan,CHN,CSWD,566710,26.65,102.25,8,1787.3
Hutchinson Municipal Ap,KS,USA,TMY3,724506,38.07,-97.87,-6,463
Philadelphia Ne Philadelphia,PA,USA,TMY3,724085,40.08,-75.02,-5,30
Charlottetown CDA,PE,CAN,WYEC2-B-14688,717060,46.28,-63.13,-4,54
Albert Lea  Awos,MN,USA,TMY3,726589,43.68,-93.37,-6,383
EAU_CLAIRE,WI,USA,TMY2-14991,726435,44.87,-91.48,-6,273
ROCHESTER,NY,USA,TMY2-14768,725290,43.12,-77.67,-5,169
Anderson County Ap,SC,USA,TMY3,723125,34.5,-82.72,-5,232
Xining,Qinghai,CHN,CSWD,528660,36.72,101.75,8,2295.2
San Antonio Stinson,TX,USA,TMY3,722523,29.33,-98.47,-6,176
Savoonga,AK,USA,TMY3,702035,63.68,-170.5,-9,17
Brewster Field Arpt,NE,USA,TMY3,725628,40.45,-99.33,-6,704
KWANGJU,-,KOR,IWEC Data,471560,35.13,126.92,9,72
Panama City Bay Co,FL,USA,TMY3,722245,30.2,-85.68,-6,6
KISR Coastal Weather Station,-,KWT,KISR,405850,29.03,47.98,3,6
Lubbock International Ap,TX,USA,TMY3,722670,33.67,-101.82,-6,992
Mudanjiang,Heilongjiang,CHN,CSWD,540940,44.57,129.6,8,241.4
Fort Riley Marshall Aaf,KS,USA,TMY3,724550,39.05,-96.77,-6,324
Great Bend  Awos,KS,USA,TMY3,724517,38.35,-98.87,-6,575
PUEBLO,CO,USA,TMY2-93058,724640,38.28,-104.52,-7,1439
CHATTANOOGA,TN,USA,TMY2-13882,723240,35.03,-85.2,-5,210
Page Muni  Amos,AZ,USA,TMY3,723710,36.93,-111.45,-7,1304
Watertown Municipal Ap,SD,USA,TMY3,726546,44.93,-97.15,-6,532
Edwards Afb,CA,USA,TMY3,723810,34.9,-117.87,-8,706
SALEM,OR,USA,TMY2-24232,726940,44.92,-123.02,-8,61
Los.Alamos,NM,USA,TMY2-23654,723654,35.88,-106.28,-7,2179
New York Central Prk Obs Belv,NY,USA,TMY3,725033,40.78,-73.97,-5,40
PUNTA ARENAS,-,CHL,IWEC Data,859340,-53,-70.85,-4,37
Dianbai,Guangdong,CHN,CSWD,596640,21.5,111,8,11.8
Liberal Muni,KS,USA,TMY3,724516,37.03,-100.97,-6,901
Simao,Yunnan,CHN,CSWD,569640,22.78,100.97,8,1302.1
Gwalior,Madhya Pradesh,IND,ISHRAE,423610,26.23,78.25,5.5,207
Yushan,Jiangxi,CHN,CSWD,586340,28.68,118.33,8,116.3
Fuyun,Xinjiang Uygur,CHN,CSWD,510870,46.98,89.52,8,807.5
Cranbrook,BC,CAN,WYEC2-e-94157,718800,49.6,-115.78,-8,940
Grand Rapids Awos,MN,USA,TMY3,727458,47.22,-93.52,-6,413
HURON,SD,USA,TMY2-14936,726540,44.38,-98.22,-6,393
MALE_INTL/HULULE_IS,-,MDV,SWERA,435550,4.2,73.53,5,2
Yinchuan,Ningxia Hui,CHN,CSWD,536140,38.48,106.22,8,1111.4
HUNTINGTON,WV,USA,TMY2-03860,724250,38.37,-82.55,-5,255
TULSA,OK,USA,TMY2-13968,723560,36.2,-95.9,-6,206
Sheridan,WY,USA,TMY--24029,726660,44.77,-106.97,-7,1209
BRADFORD,PA,USA,TMY2-04751,725266,41.8,-78.63,-5,600
HANOI,-,VNM,IWEC Data,488200,21.02,105.8,7,6
Mekoryuk,AK,USA,TMY3,702185,60.37,-166.27,-9,15
Bhubneshwar,Orissa,IND,ISHRAE,429710,20.25,85.83,5.5,46
GONDAR,-,ETH,SWERA,633310,12.53,37.43,3,1985
Concordia Blosser Muni Ap,KS,USA,TMY3,724580,39.55,-97.65,-6,448
Delta,UT,USA,TMY3,724795,39.33,-112.58,-7,1414
Battle Harbour,NF,CAN,WYEC2-B-CAN06,718170,52.3,-55.83,-3.5,8
Lake Charles Wb Airp,LA,USA,TMY3,722404,30.22,-93.17,-6,5
New Orleans Lakefront Ap,LA,USA,TMY3,722315,30.05,-90.03,-6,3
Appleton Outagamie,WI,USA,TMY3,726457,44.25,-88.52,-6,280
QUITO,-,ECU,IWEC Data,840710,-0.15,-78.48,-5,2812
Sumter Shaw Afb,SC,USA,TMY3,747900,33.97,-80.47,-5,74
Lewistown,MT,USA,TMY--24036,726776,47.05,-109.47,-7,1270
Willmar,MN,USA,TMY3,726576,45.12,-95.08,-6,345
Wudu,Gansu,CHN,CSWD,560960,33.4,104.92,8,1079.1
Mount Forest,ON,CAN,WYEC2-B-94857,716310,43.98,-80.75,-5,415
Fort Collins  Awos,CO,USA,TMY3,724769,40.45,-105.02,-7,1529
Fresno Yosemite Intl Ap,CA,USA,TMY3,723890,36.78,-119.72,-8,102
EUGENE,OR,USA,TMY2-24221,726930,44.12,-123.22,-8,109
Meridian Key Field,MS,USA,TMY3,722340,32.33,-88.75,-6,90
New York J F Kennedy IntL Ar,NY,USA,TMY3,744860,40.65,-73.8,-5,5
Aberdeen Regional Arpt,SD,USA,TMY3,726590,45.45,-98.42,-6,398
BEIJING/PEKING,-,CHN,SWERA,545110,39.93,116.28,8,55
Changning,Hunan,CHN,CSWD,578740,26.42,112.4,8,116.6
FORT_WAYNE,IN,USA,TMY2-14827,725330,41,-85.2,-5,252
Pune,Maharashtra,IND,ISHRAE,430630,18.53,73.85,5.5,559
New Ulm Muni  Awos,MN,USA,TMY3,726567,44.32,-94.5,-6,308
Mineral Wells Municipal Ap,TX,USA,TMY3,722597,32.78,-98.07,-6,284
ROCKFORD,IL,USA,TMY2-94822,725430,42.2,-89.1,-6,221
CASABLANCA/NOUASSER,-,MAR,IWEC Data,601560,33.37,-7.58,0,206
Newark,NJ,USA,TMY--14734,725020,40.7,-74.17,-5,9
Patna,Bihar,IND,ISHRAE,424920,25.27,85.17,5.5,53
Aksu,Xinjiang Uygur,CHN,CSWD,516280,41.17,80.23,8,1103.8
Zhaozhou,Heilongjiang,CHN,CSWD,509500,45.7,125.25,8,148.7
Patuxent River Nas,MD,USA,TMY3,724040,38.3,-76.42,-5,14
Dubois Faa Ap,PA,USA,TMY3,725125,41.18,-78.9,-5,553
International Falls Intl Ap,MN,USA,TMY3,727470,48.57,-93.4,-6,359
Rice Lake Municipal,WI,USA,TMY3,726467,45.48,-91.72,-6,347
Abilene Dyess Afb,TX,USA,TMY3,690190,32.43,-99.85,-6,545
New York City/La Guard,NY,USA,TMY--14732,725030,40.78,-73.88,-5,3
Pierre Municipal Ap,SD,USA,TMY3,726686,44.38,-100.28,-7,528
Bakersfield,CA,USA,TMY--23155,723840,35.43,-119.05,-8,150
Anniston Metropolitan Ap,AL,USA,TMY3,722287,33.58,-85.85,-6,186
Tacoma Mcchord Afb,WA,USA,TMY3,742060,47.15,-122.48,-8,88
RAPID_CITY,SD,USA,TMY2-24090,726620,44.05,-103.07,-7,966
Huron Regional Arpt,SD,USA,TMY3,726540,44.4,-98.22,-6,390
WILMINGTON,DE,USA,TMY2-13781,724089,39.67,-75.6,-5,24
Council Bluffs,IA,USA,TMY3,725497,41.27,-95.77,-6,382
Columbia Metro Arpt,SC,USA,TMY3,723100,33.95,-81.12,-5,65
Greenville Majors,TX,USA,TMY3,722588,33.07,-96.07,-6,163
Two Harbors,MN,USA,TMY3,727444,47.05,-91.75,-6,328
ELDORET,-,KEN,SWERA,636860,0.53,35.28,3,2133
Clinton Sherman,OK,USA,TMY3,723526,35.33,-99.2,-6,586
Baton Rouge Ryan Arpt,LA,USA,TMY3,722317,30.53,-91.15,-6,20
Lafayette Regional Ap,LA,USA,TMY3,722405,30.2,-91.98,-6,12
PENDLETON,OR,USA,TMY2-24155,726880,45.68,-118.85,-8,456
Rochester,MN,USA,TMY--14925,726440,43.92,-92.5,-6,402
Seattle Boeing Field  Isis,WA,USA,TMY3,727935,47.68,-122.25,-8,20
New Bern Craven Co Regl Ap,NC,USA,TMY3,723095,35.07,-77.05,-5,5
Broomfield Jeffco  Boulder   S,CO,USA,TMY3,724699,40.13,-105.24,-7,1689
Longzhou,Guangxi Zhuang,CHN,CSWD,594170,22.33,106.85,8,128.8
Shiraz,-,IRN,ITMY,408480,29.32,52.36,3,1481
MASON_CITY,IA,USA,TMY2-14940,725485,43.15,-93.33,-6,373
BELEM,-,BRA,IWEC Data,821930,-1.38,-48.48,-3,16
CHENGDU,-,CHN,SWERA,562940,30.67,104.02,8,508
Moline Quad City Intl Ap,IL,USA,TMY3,725440,41.47,-90.52,-6,180
GREAT_FALLS,MT,USA,TMY2-24143,727755,47.48,-111.37,-7,1116
Sholapur,Maharashtra,IND,ISHRAE,431170,17.67,75.9,5.5,479
Millville Municipal Ap,NJ,USA,TMY3,724075,39.37,-75.08,-5,21
NORTH_BEND,OR,USA,TMY2-24284,726917,43.42,-124.25,-8,5
Zhengzhou,Henan,CHN,CSWD,570830,34.72,113.65,8,110.4
Green Bay Austin Straubel Int,WI,USA,TMY3,726450,44.48,-88.13,-6,209
SIOUX_FALLS,SD,USA,TMY2-14944,726510,43.57,-96.73,-6,435
Tekamah  Asos,NE,USA,TMY3,725527,41.77,-96.17,-6,312
SAN_DIEGO,CA,USA,TMY2-23188,722900,32.73,-117.17,-8,9
Key West Nas,FL,USA,TMY3,722015,24.58,-81.68,-5,7
Mangalore,Karnataka,IND,ISHRAE,432840,12.52,74.52,5.5,22
ERIE,PA,USA,TMY2-14860,725260,42.08,-80.18,-5,225
Pellston Emmet County Ap,MI,USA,TMY3,727347,45.57,-84.78,-5,218
Aurangabad,Maharashtra,IND,ISHRAE,430140,19.88,75.33,5.5,581
GRAND_JUNCTION,CO,USA,TMY2-23066,724760,39.12,-108.53,-7,1475
Yuncheng,Shanxi,CHN,CSWD,539590,35.05,111.05,8,365
TOKYO HYAKURI,-,JPN,IWEC Data,477150,36.18,140.42,9,35
GUANGZHOU,-,CHN,IWEC Data,592870,23.13,113.32,8,8
Weifang,Shandong,CHN,CSWD,548430,36.75,119.18,8,22.2
Xinmin,Liaoning,CHN,CSWD,543330,41.98,122.83,8,30.7
Fort Lauderdale,FL,USA,TMY3,722039,26.2,-80.17,-5,4
MADISON,WI,USA,TMY2-14837,726410,43.13,-89.33,-6,262
Sandberg,CA,USA,TMY3,723830,34.75,-118.72,-8,1377
Cairns Field Fort Rucker,AL,USA,TMY3,722269,31.27,-85.72,-6,91
South Bend,IN,USA,TMY--14848,725350,41.7,-86.32,-6,236
Hezuo,Gansu,CHN,CSWD,560800,35,102.9,8,2910
Crookston Muni Fld,MN,USA,TMY3,727452,47.85,-96.62,-6,273
Pittsburgh Allegheny Co Ap,PA,USA,TMY3,725205,40.35,-79.92,-5,380
Fuyu,Heilongjiang,CHN,CSWD,507420,47.78,124.48,8,162.7
St Petersburg Clear,FL,USA,TMY3,722116,27.9,-82.68,-5,3
Redding Municipal Arpt,CA,USA,TMY3,725920,40.52,-122.32,-8,153
Miami Kendall Tamia,FL,USA,TMY3,722029,25.65,-80.43,-5,3
Austin Muni,MN,USA,TMY3,727566,43.67,-92.93,-6,375
HELENA,MT,USA,TMY2-24144,727720,46.6,-112,-7,1188
YINING,-,CHN,SWERA,514310,43.95,81.33,8,663
Ely Muni,MN,USA,TMY3,727459,47.82,-91.83,-6,455
Quillayute State Airport,WA,USA,TMY3,727970,47.93,-124.57,-8,55
Yazd,-,IRN,ITMY,408210,31.88,54.28,3,1237
FLORIANOPOLIS_ARPT,-,BRA,SWERA,838990,-27.67,-48.55,-3,5
Pensacola Regional Ap,FL,USA,TMY3,722223,30.48,-87.18,-6,34
TRINCOMALEE_(AFB),-,LKA,SWERA,434180,8.58,81.25,6,7
Houston Ellington Afb  Clear L,TX,USA,TMY3,722436,29.57,-95.09,-6,6
Bailingmiao,Nei Mongol,CHN,CSWD,533520,41.7,110.43,8,1376.6
Gulkana Intermediate Field,AK,USA,TMY3,702710,62.15,-145.45,-9,478
Detroit/City,MI,USA,TMY--14822,725375,42.5,-83,-5,190
Sunwu,Heilongjiang,CHN,CSWD,505640,49.43,127.35,8,234.5
Red Bluff,CA,USA,TMY--24216,725910,40.15,-122.25,-8,106
LUFKIN,TX,USA,TMY2-93987,722446,31.23,-94.75,-6,96
Lancaster,PA,USA,TMY3,725116,40.12,-76.3,-5,126
Eau Claire County Ap,WI,USA,TMY3,726435,44.87,-91.48,-6,271
Alpena,MI,USA,TMY--94849,726390,45.07,-83.57,-5,211
Adirondack Rgnl,NY,USA,TMY3,726228,44.38,-74.2,-5,520
Sierra Blanca Rgnl,NM,USA,TMY3,722683,33.47,-105.53,-7,2078
Fujin,Heilongjiang,CHN,CSWD,507880,47.23,131.98,8,66.4
Draughon Miller Cen,TX,USA,TMY3,722577,31.15,-97.4,-6,213
Yakima,WA,USA,TMY--24243,727810,46.57,-120.53,-8,325
Glenwood  Asos,MN,USA,TMY3,726547,45.65,-95.32,-6,425
Barkam,Sichuan,CHN,CSWD,561720,31.9,102.23,8,2664.4
Jamnagar,Gujarat,IND,ISHRAE,427340,22.47,70.02,5.5,20
Richmond,VA,USA,TMY--13740,724010,37.5,-77.33,-5,54
Helena Regional Airport,MT,USA,TMY3,727720,46.6,-111.97,-7,1167
Evanston Burns Fld,WY,USA,TMY3,725775,41.28,-111.03,-7,2183
MISSOULA,MT,USA,TMY2-24153,727730,46.92,-114.08,-7,972
Mohe,Heilongjiang,CHN,CSWD,501360,52.97,122.52,8,433
Marion Regional,IL,USA,TMY3,724339,37.75,-89.02,-6,144
Molokai  Amos,HI,USA,TMY3,911860,21.15,-157.1,-10,137
Xi Ujimqin Qi,Nei Mongol,CHN,CSWD,540120,44.58,117.6,8,995.9
Atlantic,IA,USA,TMY3,725453,41.4,-95.05,-6,360
Watertown Ap,NY,USA,TMY3,726227,44,-76.02,-5,97
Farmington Four Corners Regl,NM,USA,TMY3,723658,36.75,-108.23,-7,1675
San Diego/Int'l Airpor,CA,USA,TMY--23188,722900,32.73,-117.17,-8,9
Nome Municipal Arpt,AK,USA,TMY3,702000,64.52,-165.45,-9,4
Bremerton National,WA,USA,TMY3,727928,47.48,-122.75,-8,137
Big Delta Allen Aaf,AK,USA,TMY3,702670,64,-145.72,-9,386
Amritsar,Punjab,IND,ISHRAE,420710,31.38,74.52,5.5,234
Tabriz,-,IRN,ITMY,407060,38.05,46.17,3,1361
Ewa/Barbers Point NAS,HI,USA,TMY--22514,911780,21.32,-158.07,-10,15
Lubbock/Int'l Arpt,TX,USA,TMY--23042,722670,33.65,-101.82,-6,988
Elmira Corning Regional Ap,NY,USA,TMY3,725156,42.17,-76.9,-5,291
Greer GreenvL Spartanbrg Ap,SC,USA,TMY3,723120,34.9,-82.22,-5,292
San Antonio/Randolph A,TX,USA,TMY--12921,722530,29.53,-98.28,-6,232
MATSUMOTO,-,JPN,IWEC Data,476180,36.25,137.97,9,611
Raipur,Chhattisgarh,IND,ISHRAE,428750,21.23,81.65,5.5,298
Guiping,Guangxi Zhuang,CHN,CSWD,592540,23.4,110.08,8,42.5
Cambridge Muni,MN,USA,TMY3,727503,45.57,-93.27,-6,287
Lancang,Yunnan,CHN,CSWD,569540,22.57,99.93,8,1054.8
CH'ONGJIN,-,PRK,IWEC Data,470080,41.78,129.82,9,43
Williston Sloulin Intl Ap,ND,USA,TMY3,727670,48.2,-103.65,-6,580
Jaipur,Rajasthan,IND,ISHRAE,423480,26.82,75.8,5.5,390
Yuba Co,CA,USA,TMY3,724838,39.1,-121.57,-8,19
Akron Washington Co Ap,CO,USA,TMY3,724698,40.17,-103.23,-7,1421
PORTLAND,ME,USA,TMY2-14764,726060,43.65,-70.32,-5,19
Charlotte Douglas Intl Arpt,NC,USA,TMY3,723140,35.22,-80.95,-5,222
Qamdo,Tibet,CHN,CSWD,561370,31.15,97.17,8,3306
New Orleans Intl Arpt,LA,USA,TMY3,722310,30,-90.25,-6,1
Scottsbluff W B Heilig Field,NE,USA,TMY3,725660,41.87,-103.6,-7,1202
Salinas Municipal Ap,CA,USA,TMY3,724917,36.67,-121.6,-8,21
SHENZHEN,-,CHN,SWERA,594930,22.55,114.1,8,18
Jacksonville/Int'l Air,FL,USA,TMY--13889,722060,30.5,-81.7,-5,9
Sleetmute,AK,USA,TMY3,703407,61.72,-157.15,-9,54
Phoenix Sky Harbor Intl Ap,AZ,USA,TMY3,722780,33.45,-111.98,-7,337
Iron Mountain Ford,MI,USA,TMY3,727437,45.82,-88.12,-6,360
Marion   Wytheville,VA,USA,TMY3,724056,36.9,-81.35,-5,780
Crane Lake  Awos,MN,USA,TMY3,727473,46.27,-92.57,-6,350
Lufkin,TX,USA,TMY--93987,722446,31.23,-94.75,-6,88
Burns Municipal Arpt  Uo,OR,USA,TMY3,726830,43.52,-119.02,-8,1271
Hangzhou,Zhejiang,CHN,CSWD,584570,30.23,120.17,8,41.7
Modesto City County Ap,CA,USA,TMY3,724926,37.63,-120.95,-8,30
Jackson Julian Carroll Ap,KY,USA,TMY3,724236,37.58,-83.32,-5,416
Sand Point,AK,USA,TMY3,703165,55.32,-160.52,-9,7
Sheldon,IA,USA,TMY3,725495,43.22,-95.83,-6,432
Silver Bay,MN,USA,TMY3,727556,47.2,-91.4,-6,331
Winona Muni  Awos,MN,USA,TMY3,726588,44.08,-91.7,-6,200
Ambler,AK,USA,TMY3,701718,67.1,-157.85,-9,88
HAMBANTOTA,-,LKA,SWERA,434970,6.12,81.13,6,20
Thief River Awos,MN,USA,TMY3,727555,48.07,-96.18,-6,340
Toledo,OH,USA,TMY--94830,725360,41.6,-83.8,-5,211
Concord,NH,USA,TMY--14745,726050,43.2,-71.5,-5,105
Dalhart Municipal Ap,TX,USA,TMY3,722636,36.02,-102.55,-6,1216
Burbank Glendale Passadena Ap,CA,USA,TMY3,722880,34.2,-118.35,-8,226
COX'S_BAZAR,-,BGD,SWERA,419920,21.43,91.97,6,4
Dinwiddie Co,VA,USA,TMY3,724014,37.18,-77.52,-5,60
Alpena County Regional Ap,MI,USA,TMY3,726390,45.07,-83.58,-5,210
Chennai-Madras,Tamil Nadu,IND,ISHRAE,432790,13,80.18,5.5,16
Oklahoma City Wiley,OK,USA,TMY3,723544,35.53,-97.65,-6,396
Bhopal,Madhya Pradesh,IND,ISHRAE,426670,23.28,77.35,5.5,523
Ponca City Municipal Ap  Sgp,OK,USA,TMY3,723546,36.61,-97.49,-6,318
Siloam Spring Awos,AR,USA,TMY3,723443,36.18,-94.48,-6,364
Atlantic City Intl Ap,NJ,USA,TMY3,724070,39.45,-74.57,-5,18
Rochester International Arpt,MN,USA,TMY3,726440,43.9,-92.5,-6,398
Kailu,Nei Mongol,CHN,CSWD,541340,43.6,121.28,8,241
Greenwood,NS,CAN,WYEC2-B-14636,713970,44.98,-64.92,-4,28
Valdez Wso,AK,USA,TMY3,702750,61.13,-146.35,-9,7
Fort Dodge  Awos,IA,USA,TMY3,725490,42.55,-94.18,-6,355
MOLINE,IL,USA,TMY2-14923,725440,41.45,-90.52,-6,181
Jackson Reynolds Field,MI,USA,TMY3,725395,42.27,-84.47,-5,304
Xinyang,Henan,CHN,CSWD,572970,32.13,114.05,8,114.5
Fullerton Municipal,CA,USA,TMY3,722976,33.87,-117.98,-8,29
SANTA_MARIA,CA,USA,TMY2-23273,723940,34.9,-120.45,-8,72
SPRINGFIELD,MO,USA,TMY2-13995,724400,37.23,-93.38,-6,387
Savannah Intl Ap,GA,USA,TMY3,722070,32.12,-81.2,-5,14
Chattanooga Lovell Field Ap,TN,USA,TMY3,723240,35.03,-85.2,-5,204
Kahului Airport,HI,USA,TMY3,911900,20.9,-156.43,-10,16
Dodge City,KS,USA,TMY--13985,724510,37.77,-99.97,-6,790
Nanning,Guangxi Zhuang,CHN,CSWD,594310,22.63,108.22,8,121.6
EJIN_QI,-,CHN,SWERA,522670,41.95,101.07,8,941
KUNMING/WUJIABA,-,CHN,SWERA,567780,25.02,102.68,8,1892
P'YONGYANG,-,PRK,IWEC Data,470580,39.03,125.78,9,38
Seattle Seattle Tacoma Intl A,WA,USA,TMY3,727930,47.47,-122.32,-8,122
Kharga,Al Wadi al Jadid,EGY,ETMY,624350,25.45,30.53,2,73
Cordova,AK,USA,TMY3,702960,60.5,-145.5,-9,12
BATON_ROUGE,LA,USA,TMY2-13970,722317,30.53,-91.15,-6,23
Gillette Gillette C,WY,USA,TMY3,726650,44.35,-105.53,-7,1230
Toronto Int'l,ON,CAN,WYEC2-B-04714,716240,43.67,-79.63,-5,173
Weining,Guizhou,CHN,CSWD,566910,26.87,104.28,8,2237.5
Fort Smith Regional Ap,AR,USA,TMY3,723440,35.33,-94.37,-6,137
Columbia Regional Airport,MO,USA,TMY3,724450,38.82,-92.22,-6,272
Johnstown Cambria County Ap,PA,USA,TMY3,725127,40.32,-78.83,-5,695
Renton Muni,WA,USA,TMY3,727934,47.48,-122.22,-8,10
Manchester Airport,NH,USA,TMY3,743945,42.93,-71.43,-5,69
Saint Mary S  Awos,AK,USA,TMY3,702005,62.07,-163.3,-9,95
Saint John,NB,CAN,WYEC2-B-14643,716090,45.32,-65.88,-4,109
ABU DHABI,-,ARE,IWEC Data,412170,24.43,54.65,4,27
Danville Faa Ap,VA,USA,TMY3,724106,36.57,-79.33,-5,176
Hickory Regional Ap,NC,USA,TMY3,723145,35.73,-81.38,-5,348
Alturas,CA,USA,TMY3,725958,41.5,-120.53,-8,1341
Chengshantou,Shandong,CHN,CSWD,547760,37.4,122.68,8,47.7
NORFOLK,NE,USA,TMY2-14941,725560,41.98,-97.43,-6,471
ALAMOSA,CO,USA,TMY2-23061,724620,37.45,-105.87,-7,2297
HUILI,-,CHN,SWERA,566710,26.65,102.25,8,1788
Garze,-,CHN,SWERA,561460,31.62,100,8,3394
Redmond,OR,USA,TMY--24230,726835,44.25,-121.15,-8,938
Wenatchee Pangborn,WA,USA,TMY3,727825,47.4,-120.2,-8,379
Stephenville,NF,CAN,WYEC2-B-14503,718150,48.53,-58.55,-3.5,26
Kuujuaq,PQ,CAN,WYEC2-B-15605,719060,58.1,-68.42,-5,37
Pensacola Forest Sherman Nas,FL,USA,TMY3,722225,30.35,-87.32,-6,10
Huade,Nei Mongol,CHN,CSWD,533910,41.9,114,8,1482.7
Little Rock Afb,AR,USA,TMY3,723405,34.92,-92.15,-6,103
Chicopee Falls Westo,MA,USA,TMY3,744910,42.2,-72.53,-5,75
Newport News,VA,USA,TMY3,723086,37.13,-76.5,-5,13
Minocqua Woodruff,WI,USA,TMY3,726404,45.93,-89.73,-6,496
Zhongxiang,Hubei,CHN,CSWD,573780,31.17,112.57,8,65.8
Bugt,Nei Mongol,CHN,CSWD,506320,48.77,121.92,8,739.7
Creston,IA,USA,TMY3,725474,41.02,-94.37,-6,394
SCOTTSBLUFF,NE,USA,TMY2-24028,725660,41.87,-103.6,-7,1206
CARACAS,-,VEN,IWEC Data,804150,10.6,-66.98,-4,48
Honolulu Intl Arpt,HI,USA,TMY3,911820,21.32,-157.93,-10,2
Kalispell Glacier Pk IntL Ar,MT,USA,TMY3,727790,48.32,-114.25,-7,906
Trivandrum,Kerala,IND,ISHRAE,433710,8.48,76.95,5.5,64
BALTIMORE,MD,USA,TMY2-93721,724060,39.18,-76.67,-5,47
Valparaiso Hurlburt,FL,USA,TMY3,747770,30.42,-86.68,-6,12
Sioux City,IA,USA,TMY--14943,725570,42.4,-96.38,-6,336
Tonopah,NV,USA,TMY--23153,724855,38.05,-117.08,-8,1654
Point Hope  Awos,AK,USA,TMY3,701043,68.35,-166.8,-9,4
ELKINS,WV,USA,TMY2-13729,724170,38.88,-79.85,-5,594
Dallas Fort Worth Intl Ap,TX,USA,TMY3,722590,32.9,-97.02,-6,171
Longkou,Shandong,CHN,CSWD,547530,37.62,120.32,8,4.8
Des Moines Intl Ap,IA,USA,TMY3,725460,41.53,-93.67,-6,292
Xinghai,Qinghai,CHN,CSWD,529430,35.58,99.98,8,3323.2
Mitchell  Awos,SD,USA,TMY3,726545,43.77,-98.03,-6,397
PHOENIX,AZ,USA,TMY2-23183,722780,33.43,-112.02,-7,339
Deming Muni,NM,USA,TMY3,722725,32.25,-107.72,-7,1348
WEST_PALM_BEACH,FL,USA,TMY2-12844,722030,26.68,-80.1,-5,6
Tikanlik,Xinjiang Uygur,CHN,CSWD,517650,40.63,87.7,8,846
Greenville Downtown Ap,SC,USA,TMY3,723119,34.85,-82.35,-5,319
Oxnard/Point Mugu NF,CA,USA,TMY--93111,723910,34.11,-119.11,-8,3
Bayan Mod,Nei Mongol,CHN,CSWD,524950,40.17,104.8,8,1323
El Toro MCAS,CA,USA,TMY--93101,690140,33.66,-117.73,-8,116
ASTORIA,OR,USA,TMY2-94224,727910,46.15,-123.88,-8,7
Mccook Municipal,NE,USA,TMY3,725625,40.2,-100.58,-6,786
MACAU,-,MAC,IWEC Data,450110,22.2,113.53,8,86
William R Fairchild,WA,USA,TMY3,727885,48.12,-123.5,-8,91
CONCEPCION,-,CHL,IWEC Data,856820,-36.77,-73.05,-4,16
Beatrice Municipal,NE,USA,TMY3,725515,40.3,-96.75,-6,403
EAGLE,CO,USA,TMY2-23063,724675,39.65,-106.92,-7,1985
Milwaukee Mitchell Intl Ap,WI,USA,TMY3,726400,42.95,-87.9,-6,205
Red Wing,MN,USA,TMY3,726564,44.58,-92.48,-6,239
San Jose Intl Ap,CA,USA,TMY3,724945,37.37,-121.93,-8,16
Pittsburgh International Ap,PA,USA,TMY3,725200,40.5,-80.23,-5,350
Barnstable Muni Boa,MA,USA,TMY3,725067,41.67,-70.28,-5,17
Hyderabad,Andhra Pradesh,IND,ISHRAE,431280,17.45,78.47,5.5,545
HARTFORD,CT,USA,TMY2-14740,725087,41.93,-72.68,-5,55
Houston/Intercontinent,TX,USA,TMY--12960,722430,29.97,-95.35,-6,33
Chuxiong,Yunnan,CHN,CSWD,567680,25.03,101.55,8,1824.1
EVANSVILLE,IN,USA,TMY2-93817,724320,38.05,-87.53,-6,118
Spokane/Fairchild AFB,WA,USA,TMY--24157,727850,47.62,-117.65,-8,750
Fengning,Hebei,CHN,CSWD,543080,41.22,116.63,8,661.2
Long Beach Daugherty Fld,CA,USA,TMY3,722970,33.83,-118.17,-8,8
Savannah,GA,USA,TMY-- 3822,722070,32.13,-81.2,-5,15
KUNMING,-,CHN,IWEC Data,567780,25.02,102.68,8,1892
Alexandria,Al Iskandariyah,EGY,ETMY,623180,31.2,29.95,2,7
Wichita Mid Continent Ap,KS,USA,TMY3,724500,37.65,-97.43,-6,402
FLINT,MI,USA,TMY2-14826,726370,42.97,-83.73,-5,233
Minot Afb,ND,USA,TMY3,727675,48.42,-101.35,-6,497
Prescott Love Field,AZ,USA,TMY3,723723,34.65,-112.42,-7,1537
Rapid City,SD,USA,TMY--24090,726620,44.05,-103.07,-7,966
Keshan,Heilongjiang,CHN,CSWD,506580,48.05,125.88,8,234.6
SURKHET,-,NPL,SWERA,444160,28.6,81.62,5.75,720
Charleston Yeager Arpt,WV,USA,TMY3,724140,38.38,-81.58,-5,310
Minchumina,AK,USA,TMY3,702460,63.88,-152.28,-9,213
NYINGCHI,-,CHN,SWERA,563120,29.57,94.47,8,3001
Franklin Naas,VA,USA,TMY3,723083,36.7,-76.9,-5,12
Alma Bacon County Ap,GA,USA,TMY3,722135,31.53,-82.5,-5,63
College Station Easterwood Fl,TX,USA,TMY3,722445,30.58,-96.37,-6,96
Bartlesville Philli,OK,USA,TMY3,723565,36.77,-96.02,-6,218
San Diego Montgomer,CA,USA,TMY3,722903,32.82,-117.13,-8,129
Hunter Aaf,GA,USA,TMY3,747804,32,-81.15,-5,13
Hailar,Nei Mongol,CHN,CSWD,505270,49.22,119.75,8,610.2
Bradford Regional Ap,PA,USA,TMY3,725266,41.8,-78.63,-5,645
Daytona Beach Intl Ap,FL,USA,TMY3,722056,29.18,-81.07,-5,9
Omaha Eppley Airfield,NE,USA,TMY3,725500,41.32,-95.9,-6,299
Birchwood,AK,USA,TMY3,702746,61.42,-149.52,-9,30
SYRACUSE,NY,USA,TMY2-14771,725190,43.12,-76.12,-5,124
ASWAN,-,EGY,IWEC Data,624140,23.97,32.78,2,194
Nenjiang,Heilongjiang,CHN,CSWD,505570,49.17,125.23,8,242.2
Medford Rogue Valley Intl Ap,OR,USA,TMY3,725970,42.19,-122.7,-8,595
Kamloops,BC,CAN,WYEC2-B-25220,718870,50.7,-120.45,-8,346
Chariton,IA,USA,TMY3,725469,41.03,-93.37,-6,320
COLUMBUS,GA,USA,TMY2-93842,722255,32.52,-84.95,-5,136
Portland Hillsboro,OR,USA,TMY3,726986,45.53,-122.95,-8,62
Wilkes-Barre/Scranton,PA,USA,TMY--14777,725130,41.33,-75.73,-5,289
BATTICALOA_(AFB),-,LKA,SWERA,434360,7.72,81.7,6,12
Alliance Municipal,NE,USA,TMY3,725635,42.05,-102.8,-7,1198
Changchun,Jilin,CHN,CSWD,541610,43.9,125.22,8,236.8
England Afb,LA,USA,TMY3,747540,31.32,-92.55,-6,27
North Platte Regional Ap,NE,USA,TMY3,725620,41.12,-100.67,-6,847
Aurora Buckley Field Angb,CO,USA,TMY3,724695,39.72,-104.75,-7,1726
Del Rio Laughlin Afb,TX,USA,TMY3,722615,29.37,-100.78,-6,327
Covington/Cincinnati O,KY,USA,TMY--93814,724210,39.05,-84.67,-5,267
Stillwater Rgnl,OK,USA,TMY3,723545,36.15,-97.08,-6,308
Nanchong,Sichuan,CHN,CSWD,574110,30.78,106.1,8,309.7
King Salmon Arpt,AK,USA,TMY3,703260,58.68,-156.65,-9,15
BAILING-MIAO,-,CHN,SWERA,533520,41.7,110.43,8,1377
ROANOKE,VA,USA,TMY2-13741,724110,37.32,-79.97,-5,358
Tacheng,Xinjiang Uygur,CHN,CSWD,511330,46.73,83,8,534.9
RECIFE/GUARARAPES,-,BRA,SWERA,828990,-8.07,-34.85,-3,19
Fort Lauderdale Hollywood Int,FL,USA,TMY3,722025,26.07,-80.15,-5,3
Springfield Regional Arpt,MO,USA,TMY3,724400,37.23,-93.38,-6,384
Cahokia St  Louis,IL,USA,TMY3,725314,38.57,-90.15,-6,126
ANKANG/XING'AN,-,CHN,SWERA,572450,32.72,109.03,8,291
Shijiazhuang,Hebei,CHN,CSWD,536980,38.03,114.42,8,81
Key West Intl Arpt,FL,USA,TMY3,722010,24.55,-81.75,-5,1
Brownsville S Padre Isl Intl,TX,USA,TMY3,722500,25.9,-97.43,-6,6
WICHITA,KS,USA,TMY2-03928,724500,37.65,-97.42,-6,408
SAPPORO,-,JPN,IWEC Data,474120,43.05,141.33,9,19
Denver Centennial  Golden   Nr,CO,USA,TMY3,724666,39.74,-105.18,-7,1829
San Francisco,CA,USA,TMY--23234,724940,37.62,-122.38,-8,5
Climate Zone 10,CA,USA,CTZRV2,722860,33.88,-117.27,-8,469
Crestview Bob Sikes Ap,FL,USA,TMY3,722215,30.78,-86.52,-6,58
Yanqi,Xinjiang Uygur,CHN,CSWD,515670,42.08,86.5,8,1055.3
LUBBOCK,TX,USA,TMY2-23042,722670,33.65,-101.82,-6,988
Klamath Falls Intl Ap  Uo,OR,USA,TMY3,725895,42.22,-121.74,-8,1220
Livingston Mission Field,MT,USA,TMY3,726798,45.7,-110.45,-7,1418
Provo Muni  Awos,UT,USA,TMY3,725724,40.22,-111.72,-7,1369
Bellevue Offutt Afb,NE,USA,TMY3,725540,41.12,-95.92,-6,319
OKLAHOMA_CITY,OK,USA,TMY2-13967,723530,35.4,-97.6,-6,397
Jiulong,Sichuan,CHN,CSWD,564620,29,101.5,8,2987.3
Elkins Elkins Randolph Co Arp,WV,USA,TMY3,724170,38.88,-79.85,-5,594
New River Mcaf,NC,USA,TMY3,723096,34.7,-77.38,-5,5
Clarinda,IA,USA,TMY3,725479,40.72,-95.03,-6,303
CEDAR_CITY,UT,USA,TMY2-93129,724755,37.7,-113.1,-7,1712
Guyuan,Ningxia Hui,CHN,CSWD,538170,36,106.27,8,1753
Mankato Awos,MN,USA,TMY3,726585,44.22,-93.92,-6,311
Fort Yukon,AK,USA,TMY3,701940,66.57,-145.27,-9,136
Bettles Field,AK,USA,TMY3,701740,66.92,-151.52,-9,196
Jacksonville Craig,FL,USA,TMY3,722068,30.33,-81.52,-5,12
Jagdelpur,Orissa,IND,ISHRAE,430410,19.08,82.03,5.5,553
Brownsville,TX,USA,TMY--12919,722500,25.9,-97.43,-6,6
San Diego Lindbergh Field,CA,USA,TMY3,722900,32.73,-117.17,-8,4
Mount Shasta,CA,USA,TMY--24215,725957,41.33,-122.33,-8,1077
Tuscaloosa Municipal Ap,AL,USA,TMY3,722286,33.22,-87.62,-6,51
PORTLAND,OR,USA,TMY2-24229,726980,45.6,-122.6,-8,12
LITTLE_ROCK,AR,USA,TMY2-13963,723405,34.73,-92.23,-6,81
Crescent City Faa Ai,CA,USA,TMY3,725946,41.78,-124.23,-8,17
Paducah Barkley Regional Ap,KY,USA,TMY3,724350,37.05,-88.77,-6,124
Guilin,Guangxi Zhuang,CHN,CSWD,579570,25.32,110.3,8,164.4
Raleigh Durham International,NC,USA,TMY3,723060,35.87,-78.78,-5,127
Worthington  Awos,MN,USA,TMY3,726587,43.65,-95.58,-6,480
SEATTLE,WA,USA,TMY2-24233,727930,47.45,-122.3,-8,122
Cape May Co,NJ,USA,TMY3,745966,39,-74.92,-5,7
Rock Springs Arpt  Green River,WY,USA,TMY3,725744,41.46,-109.44,-7,1000
Berlin Municipal,NH,USA,TMY3,726160,44.58,-71.18,-5,353
Zhuzhou,Hunan,CHN,CSWD,577800,27.87,113.17,8,74.6
CHONGQING/CHUNGKING,-,CHN,SWERA,575160,29.52,106.48,8,351
Lhasa,Tibet,CHN,CSWD,555910,29.67,91.13,8,3648.9
Chengde,Hebei,CHN,CSWD,544230,40.98,117.95,8,385.9
Pueblo,CO,USA,TMY--93058,724640,38.28,-104.52,-7,1439
New Bedford Rgnl,MA,USA,TMY3,725065,41.67,-70.95,-5,25
Allentown,PA,USA,TMY--14737,725170,40.65,-75.43,-5,117
Sault Ste Marie,MI,USA,TMY--14847,727340,46.47,-84.37,-5,221
Ann Arbor Municipal,MI,USA,TMY3,725374,42.22,-83.75,-5,256
Fair Field,IA,USA,TMY3,726498,41.05,-91.98,-6,244
Auburn Lewiston,ME,USA,TMY3,726184,44.05,-70.28,-5,88
Orlando Sanford Airport,FL,USA,TMY3,722057,28.78,-81.25,-5,17
SPOKANE,WA,USA,TMY2-24157,727855,47.63,-117.53,-8,721
Dodge City Regional Ap,KS,USA,TMY3,724510,37.77,-99.97,-6,785
SHENYANG,-,CHN,IWEC Data,543420,41.78,123.48,8,43
Omaha/Eppley Airfield,NE,USA,TMY--94918,725500,41.3,-95.9,-6,299
Georgetown  Awos,TX,USA,TMY3,722547,30.68,-97.68,-6,240
Helena,MT,USA,TMY--24144,727720,46.6,-112,-7,1188
Bikaner,Rajasthan,IND,ISHRAE,421650,28,73.3,5.5,224
St Joseph Rosecrans Memorial,MO,USA,TMY3,724490,39.77,-94.9,-6,247
Gadsen Muni  Awos,AL,USA,TMY3,722285,33.97,-86.08,-6,173
Norwood Memorial,MA,USA,TMY3,725098,42.18,-71.18,-5,15
NORFOLK,VA,USA,TMY2-13737,723080,36.9,-76.2,-5,9
Augusta Airport,ME,USA,TMY3,726185,44.32,-69.8,-5,107
Rajkot,Gujarat,IND,ISHRAE,427370,22.3,70.78,5.5,138
Marshfield Muni,WI,USA,TMY3,726574,44.63,-90.18,-6,389
Climate Zone 16,CA,USA,CTZRV2,725957,41.3,-122.3,-8,1080
PITTSBURGH,PA,USA,TMY2-94823,725200,40.5,-80.22,-5,373
Red Bluff Municipal Arpt,CA,USA,TMY3,725910,40.15,-122.25,-8,106
Hohhot,Nei Mongol,CHN,CSWD,534630,40.82,111.68,8,1063
Bangor International Ap,ME,USA,TMY3,726088,44.8,-68.82,-5,56
Portland Intl Jetport,ME,USA,TMY3,726060,43.65,-70.3,-5,14
Hayes River,AK,USA,TMY3,702495,61.98,-152.08,-9,305
Miles City,MT,USA,TMY--24037,742300,46.43,-105.87,-7,801
State College  Penn State   Su,PA,USA,TMY3,725128,40.72,-77.93,-5,376
Valentine Miller Field,NE,USA,TMY3,725670,42.87,-100.55,-6,789
Wrangell,AK,USA,TMY3,703870,56.48,-132.37,-9,13
Sundernagar,Himachal Pradesh,IND,ISHRAE,8204,31.32,76.53,5.5,874
EASTER ISLAND,-,CHL,IWEC Data,854690,-27.15,-109.42,-6,47
Dallas Addison Arpt,TX,USA,TMY3,722598,32.97,-96.83,-6,196
Bethel,AK,USA,TMY--26615,702190,60.78,-161.8,-9,46
Dillingham  Amos,AK,USA,TMY3,703210,59.05,-158.52,-9,29
Tallahassee Regional Ap  Isis,FL,USA,TMY3,722140,30.38,-84.37,-5,21
CURITIBA/AFONSO_PEN,-,BRA,SWERA,838400,-25.52,-49.17,-3,908
Amarillo,TX,USA,TMY--23047,723630,35.23,-101.7,-6,1099
Xian,Shaanxi,CHN,CSWD,570360,34.3,108.93,8,397.5
Gage Airport,OK,USA,TMY3,723527,36.3,-99.77,-6,668
Sandspit,BC,CAN,WYEC2-B-25346,711010,53.25,-131.82,-8,6
Yakutat State Arpt,AK,USA,TMY3,703610,59.52,-139.63,-9,8
Aspen Pitkin Co Sar,CO,USA,TMY3,724676,39.22,-106.87,-7,2444
JESSORE_(CIV/MIL),-,BGD,SWERA,419360,23.18,89.17,6,7
Jaisalmer,Rajasthan,IND,ISHRAE,423280,26.9,70.92,5.5,242
Lexington,KY,USA,TMY--93820,724220,38.03,-84.6,-5,301
Mountain View Moffett Fld Nas,CA,USA,TMY3,745090,37.4,-122.05,-8,12
Topeka Forbes Field,KS,USA,TMY3,724565,38.95,-95.67,-6,325
Whiteman Afb,MO,USA,TMY3,724467,38.72,-93.55,-6,255
Grand Island,NE,USA,TMY--14935,725520,40.97,-98.32,-6,566
Davis Monthan Afb,AZ,USA,TMY3,722745,32.17,-110.88,-7,809
St Paul Downtown Ap,MN,USA,TMY3,726584,44.93,-93.05,-6,220
Broken Bow Muni,NE,USA,TMY3,725555,41.43,-99.65,-6,776
San Angelo,TX,USA,TMY--23034,722630,31.37,-100.5,-6,582
Montgomery,AL,USA,TMY--13895,722260,32.3,-86.4,-6,62
Bandar Abass,-,IRN,ITMY,408750,27.13,56.22,3,9.8
Wilmington,DE,USA,TMY--13781,724089,39.68,-75.6,-5,24
Fort Wayne,IN,USA,TMY--14827,725330,41,-85.2,-5,252
COLOMBO/RATMALANA,-,LKA,SWERA,434670,6.82,79.88,6,5
Cotulla Faa Ap,TX,USA,TMY3,722526,28.45,-99.22,-6,141
Ord Sharp Field,NE,USA,TMY3,725524,41.62,-98.95,-6,631
LAS_VEGAS,NV,USA,TMY2-23169,723860,36.08,-115.17,-8,664
Duluth International Arpt,MN,USA,TMY3,727450,46.83,-92.22,-6,433
Carlsbad Cavern City Air Term,NM,USA,TMY3,722687,32.33,-104.27,-7,985
KAGOSHIMA,-,JPN,IWEC Data,478270,31.57,130.55,9,5
Morris Muni  Awos,MN,USA,TMY3,726565,45.57,-95.97,-6,344
Barstow/Daggett,CA,USA,TMY--23161,723815,34.85,-116.78,-8,587
MANGNAI,-,CHN,SWERA,518860,38.25,90.85,8,2945
Ganyu,Jiangsu,CHN,CSWD,580400,34.83,119.12,8,3.3
BROWNSVILLE,TX,USA,TMY2-12919,722500,25.9,-97.43,-6,6
DULUTH,MN,USA,TMY2-14913,727450,46.83,-92.18,-6,432
Minneapolis-St Paul,MN,USA,TMY--14922,726580,44.88,-93.22,-6,255
El Paso,TX,USA,TMY--23044,722700,31.8,-106.4,-7,1194
KAKAMEGA,-,KEN,SWERA,636870,0.28,34.78,3,1530
Somerset Awos,KY,USA,TMY3,724354,38,-84.6,-5,283
Faribault Muni Awos,MN,USA,TMY3,726563,44.33,-93.32,-6,322
Chifeng,Nei Mongol,CHN,CSWD,542180,42.27,118.93,8,568
Dandong,Liaoning,CHN,CSWD,544970,40.05,124.33,8,13.8
COLORADO_SPRINGS,CO,USA,TMY2-93037,724660,38.82,-104.72,-7,1881
Owatonna  Awos,MN,USA,TMY3,726568,44.12,-93.25,-6,350
Stockton Metropolitan Arpt,CA,USA,TMY3,724920,37.9,-121.23,-8,7
Greensboro,NC,USA,TMY--13723,723170,36.08,-79.95,-5,270
ROCK_SPRINGS,WY,USA,TMY2-24027,725744,41.6,-109.07,-7,2056
Sioux Falls Foss Field,SD,USA,TMY3,726510,43.58,-96.75,-6,433
Arcata/Eureka,CA,USA,TMY--24283,725945,40.98,-124.1,-8,66
Hondo Municipal Ap,TX,USA,TMY3,722533,29.37,-99.17,-6,280
Hanzhong,Shaanxi,CHN,CSWD,571270,33.07,107.03,8,509.5
Eagle,CO,USA,TMY--23063,724675,39.65,-106.92,-7,1993
Sansui,Guizhou,CHN,CSWD,578320,26.97,108.67,8,626.9
Louisville Bowman Field,KY,USA,TMY3,724235,38.23,-85.67,-5,165
Robert Gray Aaf,TX,USA,TMY3,722576,31.07,-97.83,-6,312
Omaha Wsfo,NE,USA,TMY3,725530,41.37,-96.02,-6,399
Vero Beach Municipal Arpt,FL,USA,TMY3,722045,27.65,-80.42,-5,7
NAIROBI/DAGORETTI_,-,KEN,SWERA,637400,-1.3,36.75,3,1798
Northern Aroostook,ME,USA,TMY3,726083,47.28,-68.32,-5,309
Minneapolis Crystal,MN,USA,TMY3,726575,45.07,-93.35,-6,265
REDMOND,OR,USA,TMY2-24230,726835,44.27,-121.15,-8,940
Benson Muni,MN,USA,TMY3,727507,45.32,-95.65,-6,317
CARIBOU,ME,USA,TMY2-14607,727120,46.87,-68.02,-5,190
Worchester Regional Arpt,MA,USA,TMY3,725095,42.27,-71.88,-5,300
MADOI/HUANGHEYAN,-,CHN,SWERA,560330,34.92,98.22,8,4273
New Haven Tweed Airport,CT,USA,TMY3,725045,41.27,-72.88,-5,2
Hailey Friedman Mem,ID,USA,TMY3,725865,43.5,-114.3,-7,1620
ANCHORAGE,AK,USA,TMY2-26451,702730,61.17,-150.02,-9,35
Deqen,Yunnan,CHN,CSWD,564440,28.48,98.92,8,3319
St John's,NF,CAN,WYEC2-B-14521,718010,47.62,-52.73,-3.5,140
Casper Natrona Co Intl Ap,WY,USA,TMY3,725690,42.9,-106.47,-7,1627
KNOXVILLE,TN,USA,TMY2-13891,723260,35.82,-83.98,-5,299
JACAREACANGA,-,BRA,SWERA,826400,-6.27,-57.73,-4,98
CAPE_HATTERAS,NC,USA,TMY2-93729,723040,35.27,-75.55,-5,2
Manzhouli,Nei Mongol,CHN,CSWD,505140,49.57,117.43,8,661.7
NANCHENG,-,CHN,SWERA,587150,27.58,116.65,8,82
Helwan,Al Qahirah,EGY,ETMY,623780,29.87,31.33,2,141
COLUMBUS,OH,USA,TMY2-14821,724280,40,-82.88,-5,254
GAN_ISLAND,-,MDV,SWERA,435990,-0.68,73.15,5,2
Imperial,CA,USA,TMY3,747185,32.83,-115.58,-8,-17
Roanoke,VA,USA,TMY--13741,724110,37.32,-79.97,-5,358
ASUNCION,-,PRY,IWEC Data,862180,-25.25,-57.57,-4,101
Chengdu,Sichuan,CHN,CSWD,562940,30.67,104.02,8,506.1
Changsha,Hunan,CHN,CSWD,576870,28.22,112.92,8,68
Jinghe,Xinjiang Uygur,CHN,CSWD,513340,44.62,82.9,8,320.1
TRAVERSE_CITY,MI,USA,TMY2-14850,726387,44.73,-85.58,-5,192
Cleveland Hopkins Intl Ap,OH,USA,TMY3,725240,41.4,-81.85,-5,235
Missoula International Ap,MT,USA,TMY3,727730,46.92,-114.1,-7,973
Lafayette Purdue Univ Ap,IN,USA,TMY3,724386,40.42,-86.93,-5,183
Casa Granda  Awos,AZ,USA,TMY3,722748,32.95,-111.77,-7,446
Huntsville Intl Jones Field,AL,USA,TMY3,723230,34.65,-86.78,-6,190
Butler Co   Awos,PA,USA,TMY3,725124,40.78,-79.95,-5,380
Climate Zone 8,CA,USA,CTZRV2,690140,33.6,-117.7,-8,117
Shimen,Hunan,CHN,CSWD,575620,29.58,111.37,8,116.9
Shemya Afb,AK,USA,TMY3,704140,52.72,174.12,-10,31
Providence T F Green State Ar,RI,USA,TMY3,725070,41.72,-71.43,-5,16
Jinan,Shandong,CHN,CSWD,548230,36.6,117.05,8,170.3
Jack Northrop Fld H,CA,USA,TMY3,722956,33.92,-118.33,-8,21
Winston Salem Reynolds Ap,NC,USA,TMY3,723193,36.13,-80.22,-5,296
Lenghu,Qinghai,CHN,CSWD,526020,38.75,93.33,8,2770
Fargo Hector International Ap,ND,USA,TMY3,727530,46.93,-96.82,-6,274
Jiamusi,Heilongjiang,CHN,CSWD,508730,46.82,130.28,8,81.2
Edmonton Stony Plain,AB,CAN,WYEC2-B-25145,711230,53.53,-114.1,-7,723
Timmins,ON,CAN,WYEC2-e-94831,717390,48.57,-81.37,-5,295
Nagpur,Maharashtra,IND,ISHRAE,428670,21.1,79.05,5.5,310
TONOPAH,NV,USA,TMY2-23153,724855,38.07,-117.13,-8,1653
Farmington,MO,USA,TMY3,724454,37.77,-90.4,-6,274
Russell Municipal Ap,KS,USA,TMY3,724585,38.88,-98.82,-6,566
Carroll,IA,USA,TMY3,725468,42.05,-94.78,-6,375
Kurnool,Andhra Pradesh,IND,ISHRAE,432130,15.5,78.03,5.5,281
AWASSA_(LAKE),-,ETH,SWERA,634600,7.07,38.05,3,1652
CHARLOTTE,NC,USA,TMY2-13881,723140,35.22,-80.93,-5,234
Reno Tahoe International Ap,NV,USA,TMY3,724880,39.48,-119.77,-8,1342
Albuquerque Intl Arpt  Isis,NM,USA,TMY3,723650,35.04,-106.62,-7,1619
San Antonio Intl Ap,TX,USA,TMY3,722530,29.53,-98.47,-6,247
Cape Hatteras Nws Bldg,NC,USA,TMY3,723040,35.27,-75.55,-5,3
Memorial Fld,AR,USA,TMY3,723415,34.47,-93.1,-6,169
Long Beach,CA,USA,TMY--23129,722970,33.82,-118.15,-8,12
Cut Bank Muni Ap,MT,USA,TMY3,727796,48.6,-112.37,-7,1170
Eau Claire,WI,USA,TMY--14991,726435,44.87,-91.48,-6,276
Syracuse Hancock IntL Arpt,NY,USA,TMY3,725190,43.12,-76.1,-5,125
Bryce Canyon,UT,USA,TMY--23159,724756,37.7,-112.15,-7,2312
Summerland,BC,CAN,WYEC2-B-94152,717680,49.57,-119.65,-8,479
Glens Falls Ap,NY,USA,TMY3,725185,43.35,-73.62,-5,98
KASHI,-,CHN,SWERA,517090,39.47,75.98,8,1291
Des Moines,IA,USA,TMY--14933,725460,41.53,-93.65,-6,294
Charleston,WV,USA,TMY--13866,724140,38.37,-81.6,-5,299
OMSK,-,RUS,IWEC Data,286980,54.93,73.4,6,123
Hanford,WA,USA,TMY3,727840,46.57,-119.6,-8,223
Harlingen Rio Grande Valley I,TX,USA,TMY3,722505,26.23,-97.65,-6,10
Xilinhot,Nei Mongol,CHN,CSWD,541020,43.95,116.12,8,1003
Beaufort Mcas,SC,USA,TMY3,722085,32.48,-80.72,-5,10
Muscatine,IA,USA,TMY3,725487,41.37,-91.15,-6,167
Rochester,NY,USA,TMY--14768,725290,43.12,-77.67,-5,169
Millinocket Municipal Ap,ME,USA,TMY3,726196,45.65,-68.68,-5,124
Tuotuohe,Qinghai,CHN,CSWD,560040,34.22,92.43,8,4533.1
DEBRE_MARCOS,-,ETH,SWERA,633340,10.35,37.72,3,2476
Lewiston Nez Perce Cnty Ap,ID,USA,TMY3,727830,46.37,-117.02,-8,438
GRAND_RAPIDS,MI,USA,TMY2-94860,726350,42.88,-85.52,-5,245
Mobile Regional Ap,AL,USA,TMY3,722230,30.68,-88.25,-6,66
Boston,MA,USA,TMY--94701,725090,42.35,-71.07,-5,6
YULIN,-,CHN,SWERA,536460,38.23,109.7,8,1058
KANGNUNG,-,KOR,IWEC Data,471050,37.75,128.9,9,27
MINQIN,-,CHN,SWERA,526810,38.77,103.1,8,1367
Daqaidam,Qinghai,CHN,CSWD,527130,37.85,95.37,8,3173.2
Cloquet  Awos,MN,USA,TMY3,726558,46.7,-92.5,-6,390
Del Rio  Ut,TX,USA,TMY3,722610,29.38,-100.91,-6,308
McGrath,AK,USA,TMY--26510,702310,62.97,-155.62,-9,103
Blue Canyon Ap,CA,USA,TMY3,725845,39.3,-120.72,-8,1609
Springfield,MO,USA,TMY--13995,724400,37.23,-93.38,-6,387
Portland,ME,USA,TMY--14764,726060,43.65,-70.32,-5,19
Deer Valley Phoenix,AZ,USA,TMY3,722784,33.68,-112.08,-7,450
Del Rio/Intl Ap,TX,USA,TMY--22010,722610,29.36,-100.78,-6,327
ISHURDI,-,BGD,SWERA,419070,24.13,89.05,6,14
Yunxi,Hubei,CHN,CSWD,572510,33,110.42,8,249.1
Houghton Lake Roscommon Co Ar,MI,USA,TMY3,726380,44.37,-84.68,-5,351
Suifenhe,Heilongjiang,CHN,CSWD,540960,44.38,131.17,8,567.8
Toledo Express Airport,OH,USA,TMY3,725360,41.58,-83.8,-5,204
HARBIN,-,CHN,IWEC Data,509530,45.72,126.68,8,143
Roswell,NM,USA,TMY--23043,722680,33.3,-104.53,-7,1112
KISUMU,-,KEN,SWERA,637080,-0.1,34.75,3,1146
Kearney Muni  Awos,NE,USA,TMY3,725526,40.73,-99,-6,649
ATLANTA,GA,USA,TMY2-13874,722190,33.65,-84.43,-5,315
Farmville,VA,USA,TMY3,724017,37.35,-78.43,-5,125
GREENVILLE,SC,USA,TMY2-03870,723120,34.9,-82.22,-5,296
Northway Airport,AK,USA,TMY3,702910,62.97,-141.93,-9,522
BETHEL,AK,USA,TMY2-26615,702190,60.78,-161.8,-9,46
Zhengcheng,Guangdong,CHN,CSWD,592940,23.33,113.83,8,38.9
Dillant Hopkins,NH,USA,TMY3,726165,42.9,-72.27,-5,153
Qionghai,Hainan,CHN,CSWD,598550,19.23,110.47,8,24
ALPENA,MI,USA,TMY2-94849,726390,45.07,-83.57,-5,210
St Petersburg Albert Whitted,FL,USA,TMY3,722104,27.77,-82.63,-5,2
Visalia Muni  Awos,CA,USA,TMY3,723896,36.32,-119.4,-8,89
Huailai,Hebei,CHN,CSWD,544050,40.4,115.5,8,536
Salem,OR,USA,TMY--24232,726940,44.92,-123,-8,61
Palmer Municipal,AK,USA,TMY3,702740,61.6,-149.08,-9,71
Houma,Shanxi,CHN,CSWD,539630,35.65,111.37,8,433
Maxwell Afb,AL,USA,TMY3,722265,32.38,-86.35,-6,53
Hallock,MN,USA,TMY3,727478,48.78,-96.95,-6,250
Allentown Lehigh Valley Intl,PA,USA,TMY3,725170,40.65,-75.45,-5,119
Ejin Qi,Nei Mongol,CHN,CSWD,522670,41.95,101.07,8,940.5
Clovis Muni   Awos,NM,USA,TMY3,722689,34.43,-103.08,-7,1284
Clayton Municipal Airpark,NM,USA,TMY3,723600,36.45,-103.15,-7,1512
Montgomery Dannelly Field,AL,USA,TMY3,722260,32.3,-86.4,-6,62
METEHARA,-,ETH,SWERA,634530,8.83,39.78,3,1062
Mayport Ns,FL,USA,TMY3,722066,30.4,-81.42,-5,5
Soda Springs Tigert,ID,USA,TMY3,725868,42.65,-111.58,-7,1780
Scottsbluff,NE,USA,TMY--24028,725660,41.87,-103.6,-7,1206
OLYMPIA,WA,USA,TMY2-24227,727920,46.97,-122.9,-8,61
Danbury Municipal,CT,USA,TMY3,725086,41.37,-73.48,-5,139
KATHMANDU_INTL_ARPT,-,NPL,SWERA,444540,27.7,85.37,5.75,1337
Thunder Bay,ON,CAN,WYEC2-B-94804,717490,48.37,-89.32,-5,199
Eagle County Ap,CO,USA,TMY3,724675,39.65,-106.92,-7,1980
Wuhan,Hubei,CHN,CSWD,574940,30.62,114.13,8,23.1
Lewisburg Greenbrie,WV,USA,TMY3,724127,37.87,-80.4,-5,702
Tulihe,Nei Mongol,CHN,CSWD,504340,50.48,121.68,8,732.6
Salem Mcnary Field,OR,USA,TMY3,726940,44.9,-123,-8,60
Merced Macready Fld,CA,USA,TMY3,724815,37.28,-120.52,-8,47
Alamosa San Luis Valley Rgnl,CO,USA,TMY3,724620,37.43,-105.87,-7,2296
Montrose Co  Arpt,CO,USA,TMY3,724765,38.5,-107.9,-7,1755
Washington,IA,USA,TMY3,725454,41.28,-91.67,-6,230
North Bend,OR,USA,TMY--24284,726917,43.42,-124.25,-8,4
Dunhua,Jilin,CHN,CSWD,541860,43.37,128.2,8,524.9
BOSTON,MA,USA,TMY2-14739,725090,42.37,-71.03,-5,5
Columbus/Int'l Airport,OH,USA,TMY--14821,724280,40,-82.88,-5,249
TONGLIAO,-,CHN,SWERA,541350,43.6,122.27,8,180
Tampa/Int'l Airport,FL,USA,TMY--12842,722110,27.97,-82.53,-5,3
Climate Zone 14,CA,USA,CTZRV2,C00001,35.7,-117.7,-8,699
TOPEKA,KS,USA,TMY2-13996,724560,39.07,-95.63,-6,270
ROCHESTER,MN,USA,TMY2-14925,726440,43.92,-92.5,-6,402
HOTAN,-,CHN,SWERA,518280,37.13,79.93,8,1375
Middleton Island Aut,AK,USA,TMY3,703430,59.47,-146.32,-9,14
Oelwen,IA,USA,TMY3,725488,42.68,-91.97,-6,328
Seward,AK,USA,TMY3,702770,60.12,-149.45,-9,18
Elko Municipal Arpt,NV,USA,TMY3,725825,40.83,-115.8,-8,1548
Montague Siskiyou County Ap,CA,USA,TMY3,725955,41.78,-122.47,-8,803
El Paso International Ap  Ut,TX,USA,TMY3,722700,31.77,-106.5,-7,1186
Gambell,AK,USA,TMY3,702040,63.78,-171.75,-9,8
MONTEVIDEO,-,URY,IWEC Data,865800,-34.83,-56,-3,32
PETROLINA_AIRPORT,-,BRA,SWERA,829840,-9.35,-40.55,-3,375
SHANGHAI/HONGQIAO,-,CHN,SWERA,583620,31.17,121.43,8,7
Orange City,IA,USA,TMY3,725489,42.98,-96.07,-6,431
Minot Faa Ap,ND,USA,TMY3,727676,48.27,-101.28,-6,523
Antigo Lang Awos,WI,USA,TMY3,726626,45.15,-87.15,-5,464
Little Rock/AFB,AR,USA,TMY--13963,723403,34.92,-92.15,-6,95
Imperial Faa Ap,NE,USA,TMY3,725626,40.52,-101.62,-7,998
Huron,SD,USA,TMY--14936,726540,44.38,-98.22,-6,393
Newton Muni,IA,USA,TMY3,725464,41.68,-93.02,-6,290
Burlington Municipal Ap,IA,USA,TMY3,725455,40.78,-91.12,-6,211
Wilmington New Castle Cnty Ap,DE,USA,TMY3,724089,39.67,-75.6,-5,23
Waterloo Municipal Ap,IA,USA,TMY3,725480,42.55,-92.4,-6,264
Jonesboro Muni,AR,USA,TMY3,723407,35.83,-90.65,-6,82
Cape Girardeau Municipal Ap,MO,USA,TMY3,723489,37.23,-89.57,-6,103
Changde,Hunan,CHN,CSWD,576620,29.05,111.68,8,35
Las Vegas Mccarran Intl Ap,NV,USA,TMY3,723860,36.08,-115.15,-8,648
Caribou,ME,USA,TMY--14607,727120,46.87,-68.02,-5,190
Huntingburg,IN,USA,TMY3,724365,38.25,-86.95,-5,161
SAN_ANGELO,TX,USA,TMY2-23034,722630,31.37,-100.5,-6,582
Emmonak,AK,USA,TMY3,702084,62.78,-164.5,-9,4
Fort McMurray,AB,CAN,WYEC2-B-25105,719320,56.65,-111.22,-7,369
St Paul Island Arpt,AK,USA,TMY3,703080,57.17,-170.22,-9,7
Atlanta Hartsfield Intl Ap,GA,USA,TMY3,722190,33.63,-84.43,-5,308
Flint Bishop Intl Arpt,MI,USA,TMY3,726370,42.97,-83.75,-5,234
SHREVEPORT,LA,USA,TMY2-13957,722480,32.47,-93.82,-6,79
Chula Vista Brown Field Naas,CA,USA,TMY3,722904,32.58,-116.98,-8,159
Barksdale Afb,LA,USA,TMY3,722485,32.5,-93.67,-6,54
LA_CROSSE,WI,USA,TMY2-14920,726430,43.87,-91.25,-6,205
Belmar Asc,NJ,USA,TMY3,724084,40.18,-74.07,-5,26
Madison,WI,USA,TMY--14837,726410,43.13,-89.33,-6,264
Hayden Yampa  Awos,CO,USA,TMY3,725715,40.48,-107.22,-7,2012
Traverse City Cherry Capital,MI,USA,TMY3,726387,44.73,-85.58,-5,188
Columbus Muni,NE,USA,TMY3,725565,41.45,-97.33,-6,451
Travis Field Afb,CA,USA,TMY3,745160,38.27,-121.93,-8,18
New Orleans/Lakefront,LA,USA,TMY--12916,722310,30.05,-90.03,-6,3
Fayetteville Pope Afb,NC,USA,TMY3,723030,35.17,-79.02,-5,66
Shantou,Guangdong,CHN,CSWD,593160,23.4,116.68,8,2.9
Indianapolis,IN,USA,TMY--93819,724380,39.73,-86.27,-5,246
Churchill,MB,CAN,WYEC2-B-15901,719130,58.75,-94.07,-6,29
FORTALEZA/PINTO_MAR,-,BRA,SWERA,823980,-3.78,-38.53,-3,25
Grand Junction,CO,USA,TMY--23066,724760,39.12,-108.53,-7,1475
Fort Bragg Simmons Aaf,NC,USA,TMY3,746930,35.13,-78.93,-5,93
GREENSBORO,NC,USA,TMY2-13723,723170,36.08,-79.95,-5,270
LIHUE,HI,USA,TMY2-22536,911650,21.98,-159.35,-10,45
Paso Robles Municipal Arpt,CA,USA,TMY3,723965,35.67,-120.63,-8,244
Winslow Municipal Ap,AZ,USA,TMY3,723740,35.03,-110.72,-7,1490
Westfield Barnes Muni Ap,MA,USA,TMY3,744915,42.15,-72.72,-5,83
Ruoqiang,Xinjiang Uygur,CHN,CSWD,517770,39.03,88.17,8,887.7
Riverton Municipl Ap,WY,USA,TMY3,725765,43.05,-108.45,-7,1663
CORPUS_CHRISTI,TX,USA,TMY2-12924,722510,27.77,-97.5,-6,13
Philadelphia/Willow Gr,PA,USA,TMY--13739,724080,40.2,-75.15,-5,110
Kingsville/NAS,TX,USA,TMY--12928,722516,27.5,-97.82,-6,15
Cox Fld,TX,USA,TMY3,722587,33.63,-95.45,-6,171
Vernal,UT,USA,TMY3,725705,40.43,-109.52,-7,1608
Oakland,CA,USA,TMY--23230,724930,37.71,-122.21,-8,1
Prince George,BC,CAN,WYEC2-B-25206,718960,53.88,-122.68,-8,691
Charles City,IA,USA,TMY3,725463,43.07,-92.62,-6,343
Shearwater,NS,CAN,WYEC2-B-14633,716010,44.63,-63.5,-4,51
Ely Yelland Field,NV,USA,TMY3,724860,39.3,-114.85,-8,1909
KOTZEBUE,AK,USA,TMY2-26616,701330,66.87,-162.63,-9,5
Lusi,Jiangsu,CHN,CSWD,582650,32.07,121.6,8,5.5
Riverside Muni,CA,USA,TMY3,722869,33.95,-117.45,-8,256
Vancouver Int'l,BC,CAN,WYEC2-B-94238,718920,49.18,-123.17,-8,2
Glen Burnie/Baltimore/,MD,USA,TMY--93721,724060,39.18,-76.67,-5,47
Raxaul,Bihar,IND,ISHRAE,423820,26.58,84.52,5.5,1350
Lincoln Municipal Arpt,NE,USA,TMY3,725510,40.83,-96.77,-6,357
Gangca,Qinghai,CHN,CSWD,527540,37.33,100.13,8,3301.5
North Bend Muni Airport,OR,USA,TMY3,726917,43.42,-124.25,-8,2
Sable Island,NS,CAN,WYEC2-B-14642,716000,43.93,-60.02,-4,4
Baise,Guangxi Zhuang,CHN,CSWD,592110,23.9,106.6,8,173.5
MALINDI,-,KEN,SWERA,637990,-3.23,40.1,3,23
ST_PAUL_IS.,AK,USA,TMY2-25713,703080,57.15,-170.22,-10,7
Qiqihar,Heilongjiang,CHN,CSWD,507450,47.38,123.92,8,147.1
Kashi,Xinjiang Uygur,CHN,CSWD,517090,39.47,75.98,8,1289.4
Taos Muni Apt Awos,NM,USA,TMY3,723663,36.45,-105.67,-7,2161
CHEYENNE,WY,USA,TMY2-24018,725640,41.15,-104.82,-7,1872
Portland,OR,USA,TMY--24229,726980,45.6,-122.6,-8,12
Ketchikan Intl Ap,AK,USA,TMY3,703950,55.37,-131.72,-9,23
Corvallis Muni,OR,USA,TMY3,726945,44.48,-123.28,-8,77
Kolkata,West Bengal,IND,ISHRAE,428090,22.65,88.45,5.5,6
MEDFORD,OR,USA,TMY2-24225,725970,42.37,-122.87,-8,396
FORT_WORTH,TX,USA,TMY2-03927,722596,32.83,-97.05,-6,164
Pawtucket  Awos,RI,USA,TMY3,725054,41.92,-71.5,-5,134
CAMPO_GRANDE_INTL,-,BRA,SWERA,836120,-20.47,-54.67,-4,556
Seattle-Tacoma/Int'l A,WA,USA,TMY--24233,727930,47.45,-122.3,-8,137
Anchorage Elmendorf,AK,USA,TMY3,702720,61.25,-149.8,-9,59
Gunnison Co   Awos,CO,USA,TMY3,724677,38.53,-106.93,-7,2339
Macheng,Hubei,CHN,CSWD,573990,31.18,115.02,8,59.3
Oklahoma City Will Rogers Wor,OK,USA,TMY3,723530,35.38,-97.6,-6,398
Huslia,AK,USA,TMY3,702225,65.7,-156.38,-9,55
Albany,NY,USA,TMY--14735,725180,42.75,-73.8,-5,89
Phoenix/Int'l Airport,AZ,USA,TMY--23183,722780,33.43,-112.02,-7,337
Los Angeles,CA,USA,TMY--23174,722950,33.93,-118.4,-8,32
Red Oak,IA,USA,TMY3,725494,41.02,-95.27,-6,318
Napa Co  Airport,CA,USA,TMY3,724955,38.22,-122.28,-8,10
Kirksville Regional Ap,MO,USA,TMY3,724455,40.1,-92.55,-6,294
Jabalpur,Madhya Pradesh,IND,ISHRAE,426750,23.2,79.95,5.5,393
IRKUTSK,-,RUS,IWEC Data,307100,52.27,104.35,8,513
ATLANTIC_CITY,NJ,USA,TMY2-93730,724070,39.45,-74.57,-5,20
FRESNO,CA,USA,TMY2-93193,723890,36.77,-119.72,-8,100
Brunswick Golden Is,GA,USA,TMY3,722136,31.25,-81.47,-5,8
Douglas Bisbee Douglas Intl A,AZ,USA,TMY3,722735,31.47,-109.6,-7,1249
Greeley Weld  Awos,CO,USA,TMY3,724768,40.43,-104.63,-7,1420
Yanji,Jilin,CHN,CSWD,542920,42.88,129.47,8,176.8
Las Vegas Municipal Arpt,NM,USA,TMY3,723677,35.65,-105.15,-7,2093
Hongyuan,Sichuan,CHN,CSWD,561730,32.8,102.55,8,3491.6
Fort Worth Nas,TX,USA,TMY3,722595,32.77,-97.45,-6,185
BUENOS AIRES,-,ARG,IWEC Data,875760,-34.82,-58.53,-3,20
Huaiyang-Qingjiang,Jiangsu,CHN,CSWD,581440,33.63,119.02,8,14.4
Yanzhou,Shandong,CHN,CSWD,549160,35.57,116.85,8,51.7
LOUISVILLE,KY,USA,TMY2-93821,724230,38.18,-85.73,-5,149
Dunhuang,Gansu,CHN,CSWD,524180,40.15,94.68,8,1139
LYNCHBURG,VA,USA,TMY2-13733,724100,37.33,-79.2,-5,279
Hartford Bradley Intl Ap,CT,USA,TMY3,725080,41.93,-72.68,-5,49
Climate Zone 5,CA,USA,CTZRV2,723940,34.9,-120.4,-8,72
Parkersburg Wood County Ap,WV,USA,TMY3,724273,39.35,-81.43,-5,253
Trenton Mercer County Ap,NJ,USA,TMY3,724095,40.28,-74.82,-5,65
HAEJU,-,PRK,IWEC Data,470690,38.03,125.7,9,81
Hillsville,VA,USA,TMY3,724107,36.77,-80.82,-5,834
Monterey Naf,CA,USA,TMY3,724915,36.6,-121.87,-8,50
Yichun,Jiangxi,CHN,CSWD,577930,27.8,114.38,8,131.3
Houston Bush Intercontinental,TX,USA,TMY3,722430,30,-95.37,-6,29
Houma Terrebonne,LA,USA,TMY3,722406,29.57,-90.67,-6,3
Nanxiong,Guangdong,CHN,CSWD,579960,25.13,114.32,8,133.8
Fallon Naas,NV,USA,TMY3,724885,39.42,-118.72,-8,1199
LAKE_CHARLES,LA,USA,TMY2-03937,722400,30.12,-93.22,-6,3
Randolph Afb,TX,USA,TMY3,722536,29.53,-98.28,-6,232
Jacksonville  Awos,NC,USA,TMY3,723069,34.83,-77.62,-5,29
Roseau Muni  Awos,MN,USA,TMY3,727477,48.85,-95.7,-6,323
Nancheng,Jiangxi,CHN,CSWD,587150,27.58,116.65,8,80.8
Monroe Regional Ap,LA,USA,TMY3,722486,32.52,-92.03,-6,40
EL_PASO,TX,USA,TMY2-23044,722700,31.8,-106.4,-7,1194
ANTANANARIVO,-,MDG,IWEC Data,670830,-18.8,47.48,3,1276
Aitkin Ndb Awos,MN,USA,TMY3,727504,46.55,-93.68,-6,367
Valdosta Wb Airport,GA,USA,TMY3,722166,30.78,-83.28,-5,61
Oklahoma City/Will Rog,OK,USA,TMY--13967,723530,35.4,-97.6,-6,397
Charleston Intl Arpt,SC,USA,TMY3,722080,32.9,-80.03,-5,12
WINNEMUCCA,NV,USA,TMY2-24128,725830,40.9,-117.8,-8,1323
Fresno,CA,USA,TMY--93193,723890,36.77,-119.72,-8,100
Meridian,MS,USA,TMY--13865,722340,32.33,-88.75,-6,94
Mason City Municipal Arpt,IA,USA,TMY3,725485,43.15,-93.33,-6,364
Shishmaref  Awos,AK,USA,TMY3,701195,66.27,-166.05,-9,2
BATANG,-,CHN,SWERA,562470,30,99.1,8,2589
MASSENA,NY,USA,TMY2-94725,726223,44.93,-74.85,-5,63
Santa Monica Muni,CA,USA,TMY3,722885,34.02,-118.45,-8,53
Datong,Shanxi,CHN,CSWD,534870,40.1,113.33,8,1067.2
ABILENE,TX,USA,TMY2-13962,722660,32.43,-99.68,-6,534
Cairo Intl Airport,Al Qahirah,EGY,ETMY,623660,30.13,31.4,2,74
Kingsville,TX,USA,TMY3,722516,27.5,-97.82,-6,17
Qian Gorlos,Jilin,CHN,CSWD,509490,45.08,124.87,8,136.2
Nashville International Ap,TN,USA,TMY3,723270,36.12,-86.68,-6,177
LANDER,WY,USA,TMY2-24021,725760,42.82,-108.73,-7,1696
Yakima Air Terminal,WA,USA,TMY3,727810,46.57,-120.55,-8,324
Port Hardy,BC,CAN,WYEC2-B-25223,711090,50.68,-127.37,-8,22
Mcalester Municipal Ap,OK,USA,TMY3,723566,34.9,-95.78,-6,232
Mccomb Pike County Ap,MS,USA,TMY3,722358,31.23,-90.47,-6,126
Zanesville Municipal Ap,OH,USA,TMY3,724286,39.95,-81.9,-5,268
Salt Lake City IntL Arpt  Isis,UT,USA,TMY3,725720,40.77,-111.97,-7,1288
SANTA_MARIA,-,BRA,SWERA,839360,-29.7,-53.7,-3,114
KUQA,-,CHN,SWERA,516440,41.72,82.95,8,1100
Milwaukee,WI,USA,TMY--14839,726400,42.95,-87.9,-6,211
Houlton Intl Arpt,ME,USA,TMY3,727033,46.12,-67.8,-5,150
Nellis Afb,NV,USA,TMY3,723865,36.25,-115.03,-8,573
Selawik,AK,USA,TMY3,700197,66.6,-160,-9,8
Tiruchirapalli,Tamil Nadu,IND,ISHRAE,433440,10.77,78.72,5.5,88
West Palm Beach Intl Arpt,FL,USA,TMY3,722030,26.68,-80.1,-5,6
Benton Harbor Ross,MI,USA,TMY3,726355,42.13,-86.43,-5,196
North Bay,ON,CAN,WYEC2-B-04705,717310,46.35,-79.43,-5,371
GARISSA,-,KEN,SWERA,637230,-0.47,39.63,3,147
Abag Qi Hot,Nei Mongol,CHN,CSWD,531920,44.02,114.95,8,1126.1
Elizabeth City Coast Guard Ai,NC,USA,TMY3,746943,36.3,-76.25,-5,4
Porterville  Awos,CA,USA,TMY3,723895,36.03,-119.07,-8,135
Quxian,Zhejiang,CHN,CSWD,586330,29,118.9,8,82.4
BOGOTA,-,COL,IWEC Data,802220,4.7,-74.13,-5,2548
Macon Middle Ga Regional Ap,GA,USA,TMY3,722170,32.68,-83.65,-5,108
Tacoma Narrows,WA,USA,TMY3,727938,47.27,-122.58,-8,91
CHARLESTON,SC,USA,TMY2-13880,722080,32.9,-80.03,-5,12
Walnut Ridge  Awos,AR,USA,TMY3,723406,36.13,-90.92,-6,83
Bristol Tri City Airport,TN,USA,TMY3,723183,36.47,-82.4,-5,457
Ohio State Universi,OH,USA,TMY3,724288,40.07,-83.07,-5,283
Beverly Muni,MA,USA,TMY3,725088,42.58,-70.92,-5,34
Philadelphia International Ap,PA,USA,TMY3,724080,39.87,-75.23,-5,2
CUT_BANK,MT,USA,TMY2-24137,727796,48.6,-112.37,-7,1170
JARTAI,-,CHN,SWERA,535020,39.78,105.75,8,1033
Camp Mabry,TX,USA,TMY3,722544,30.32,-97.77,-6,198
Jartai,Nei Mongol,CHN,CSWD,535020,39.78,105.75,8,1031.8
Syracuse,NY,USA,TMY--14771,725190,43.12,-76.12,-5,124
Stuttgart  Awos,AR,USA,TMY3,723416,34.6,-91.57,-6,68
Little Rock Adams Field,AR,USA,TMY3,723403,34.75,-92.23,-6,78
Clayton,NM,USA,TMY--23051,723600,36.45,-103.15,-7,1511
Hurghada,Al Bahr al Ahmar,EGY,ETMY,624630,27.15,33.72,2,14
Kitale,-,KEN,SWERA/EnergyPlu,636610,1.02,35,3,1875
Boise,ID,USA,TMY--24131,726810,43.57,-116.22,-7,874
Sherman-Denison,TX,USA,TMY--13923,722541,33.72,-96.67,-6,233
YUMENZHEN,-,CHN,SWERA,524360,40.27,97.03,8,1527
Olathe Johnson Co,KS,USA,TMY3,724468,38.85,-94.73,-6,334
Hibbing Chisholm Hibbing Ap,MN,USA,TMY3,727455,47.38,-92.85,-6,411
TURPAN,-,CHN,SWERA,515730,42.93,89.2,8,37
Olympia Airport,WA,USA,TMY3,727920,46.97,-122.9,-8,63
Truro,NS,CAN,WYEC2-e-14675,713980,45.37,-63.27,-4,40
Golmud,Qinghai,CHN,CSWD,528180,36.42,94.9,8,2807.6
Whiting Field Naas,FL,USA,TMY3,722226,30.72,-87.02,-6,54
DES_MOINES,IA,USA,TMY2-14933,725460,41.53,-93.65,-6,294
Spencer,IA,USA,TMY3,726500,43.17,-95.15,-6,408
Cut Bank,MT,USA,TMY--24137,727796,48.6,-112.37,-7,1175
Lewistown Municipal Arpt,MT,USA,TMY3,726776,47.05,-109.45,-7,1263
MILWAUKEE,WI,USA,TMY2-14839,726400,42.95,-87.9,-6,211
CUZCO,-,PER,IWEC Data,846860,-13.55,-71.98,-5,3249
Richmond International Ap,VA,USA,TMY3,724010,37.52,-77.32,-5,50
Abilene Regional Ap  Ut,TX,USA,TMY3,722660,32.47,-99.71,-6,530
POCATELLO,ID,USA,TMY2-24156,725780,42.92,-112.6,-7,1365
Jiuquan,Gansu,CHN,CSWD,525330,39.77,98.48,8,1477.2
Rutland State,VT,USA,TMY3,725165,43.52,-72.95,-5,246
Luxor,Qina,EGY,ETMY,624050,25.67,32.7,2,99
Hartford Brainard Fd,CT,USA,TMY3,725087,41.73,-72.65,-5,6
GUIYANG,-,CHN,SWERA,578160,26.58,106.72,8,1074
Decorah,IA,USA,TMY3,725476,43.28,-91.73,-6,353
CHARLESTON,WV,USA,TMY2-13866,724140,38.37,-81.6,-5,290
HUNTSVILLE,AL,USA,TMY2-03856,723230,34.65,-86.77,-6,190
KEY_WEST,FL,USA,TMY2-12836,722010,24.55,-81.75,-5,1
LINXI,-,CHN,SWERA,541150,43.6,118.07,8,800
Moody Afb Valdosta,GA,USA,TMY3,747810,30.97,-83.2,-5,71
Henderson City,KY,USA,TMY3,724238,37.82,-87.68,-6,117
TALKEETNA,AK,USA,TMY2-26528,702510,62.3,-150.1,-9,105
Zhijiang,Hunan,CHN,CSWD,577450,27.45,109.68,8,272.2
Terre Haute Hulman Regional A,IN,USA,TMY3,724373,39.45,-87.3,-5,175
DAKAR,-,SEN,IWEC Data,616410,14.73,-17.5,0,24
Sitka Japonski Ap,AK,USA,TMY3,703710,57.05,-135.37,-9,4
Kalamazoo Battle Cr,MI,USA,TMY3,726357,42.23,-85.55,-5,273
Myrtle Beach Afb,SC,USA,TMY3,747910,33.68,-78.93,-5,8
CAPE TOWN,-,ZAF,IWEC Data,688160,-33.98,18.6,2,42
Hartford/Brainard Fiel,CT,USA,TMY--14740,725080,41.73,-72.65,-5,6
Otog Qi,Nei Mongol,CHN,CSWD,535290,39.1,107.98,8,1380.3
NEW_YORK_CITY,NY,USA,TMY2-94728,744860,40.78,-73.97,-5,57
Naples Municipal,FL,USA,TMY3,722038,26.15,-81.77,-5,3
Los Angeles Intl Arpt,CA,USA,TMY3,722950,33.93,-118.4,-8,30
Scottsdale Muni,AZ,USA,TMY3,722789,33.62,-111.92,-7,460
Lake Charles Regional Arpt,LA,USA,TMY3,722400,30.12,-93.23,-6,5
Bagotville,PQ,CAN,WYEC2-B-94795,717270,48.33,-71,-5,159
Mengzi,Yunnan,CHN,CSWD,569850,23.38,103.38,8,1300.7
Juxian,Shandong,CHN,CSWD,549360,35.58,118.83,8,107.4
Medford,OR,USA,TMY--24225,725970,42.37,-122.87,-8,405
Dare Co Rgnl,NC,USA,TMY3,723046,35.92,-75.7,-5,4
YAKUTSK,-,RUS,IWEC Data,249590,62.08,129.75,9,103
BURLINGTON,VT,USA,TMY2-14742,726170,44.47,-73.15,-5,104
GREEN_BAY,WI,USA,TMY2-14898,726450,44.48,-88.13,-6,214
Sacramento Metropolitan Ap,CA,USA,TMY3,724839,38.7,-121.58,-8,7
Chicago Waukegan,IL,USA,TMY3,725347,42.42,-87.87,-6,222
Hilo International Ap,HI,USA,TMY3,912850,19.72,-155.05,-10,9
Fort Smith,AR,USA,TMY--13964,723440,35.33,-94.37,-6,141
Madison Dane Co Regional Arpt,WI,USA,TMY3,726410,43.13,-89.33,-6,262
Climate Zone 11,CA,USA,CTZRV2,725910,40.2,-122.2,-8,104
Denison,IA,USA,TMY3,725477,41.98,-95.38,-6,388
Watertown,WI,USA,TMY3,726464,43.17,-88.72,-6,254
Battle Creek Kellogg Ap,MI,USA,TMY3,725396,42.3,-85.25,-5,283
Nanyang,Henan,CHN,CSWD,571780,33.03,112.58,8,129.2
Wheaton Ndb  Awos,MN,USA,TMY3,727533,45.7,-96.5,-6,313
Newton  Awos,KS,USA,TMY3,724509,38.05,-97.28,-6,467
Linjiang,Jilin,CHN,CSWD,543740,41,126.92,8,332.7
KARACHI,-,PAK,IWEC Data,417800,24.9,67.13,5,22
Brandon,MB,CAN,WYEC2-e-14997,711400,49.92,-99.95,-6,409
Bakersfield Meadows Field,CA,USA,TMY3,723840,35.43,-119.05,-8,149
Climate Zone 13,CA,USA,CTZRV2,723890,36.8,-119.7,-8,100
St Clair County Int,MI,USA,TMY3,725384,42.92,-82.53,-5,198
Lynchburg Regional Arpt,VA,USA,TMY3,724100,37.33,-79.2,-5,286
Camp Pendleton Mcas,CA,USA,TMY3,722926,33.3,-117.35,-8,23
Brainerd Wieland,MN,USA,TMY3,726555,46.4,-94.13,-6,374
Ahmedabad,Gujarat,IND,ISHRAE,426470,23.07,72.63,5.5,55
Providence,RI,USA,TMY--14765,725070,41.73,-71.43,-5,19
NUWARA_ELIYA,-,LKA,SWERA,434730,6.97,80.77,6,1880
KING_SALMON,AK,USA,TMY2-25503,703260,58.68,-156.65,-9,15
Republic,NY,USA,TMY3,744864,40.72,-73.42,-5,26
ALTAY,-,CHN,SWERA,510760,47.73,88.08,8,737
Idaho Falls Fanning Field,ID,USA,TMY3,725785,43.52,-112.07,-7,1441
Great Falls/Malmstrom,MT,USA,TMY--24143,727750,47.5,-111.18,-7,1075
Laredo Intl Ap  Ut,TX,USA,TMY3,722520,27.57,-99.49,-6,142
Harbin,Heilongjiang,CHN,CSWD,509530,45.75,126.77,8,142.3
Fairbanks/Int'l Airpor,AK,USA,TMY--26411,702610,64.82,-147.87,-9,138
Greer/Greenville,SC,USA,TMY-- 3870,723120,34.9,-82.22,-5,296
NAIROBI/JOMO_KENYAT,-,KEN,SWERA,637400,-1.32,36.92,3,1624
Garden City Municipal Ap,KS,USA,TMY3,724515,37.93,-100.72,-6,878
Southern Illinois,IL,USA,TMY3,724336,37.77,-89.25,-6,128
Charlottesville Faa,VA,USA,TMY3,724016,38.13,-78.45,-5,190
Togiac Village Awos,AK,USA,TMY3,703606,59.05,-160.4,-9,6
London Corbin Ap,KY,USA,TMY3,724243,37.08,-84.08,-5,362
Sidney Richland,MT,USA,TMY3,727687,47.7,-104.2,-7,605
Zhangwu,Liaoning,CHN,CSWD,542360,42.42,122.53,8,79.4
