city,state,country,source,wmonum,latitude,longitude,timezone,elevation,link
Mount Clemens Selfridge Fld,MI,USA,TMY3,725377,42.62,-82.83,-5,177,http://apps1.eere.energy.gov/buildings/energyplus/weatherdata/4_north_and_central_america_wmo_region_4/1_usa/USA_MI_Mount.Clemens-Selfridge.ANGB.725377_TMY3.zip
Roosevelt Roads,PR,PRI,TMY3,785350,18.25,-65.63,-4,12,http://apps1.eere.energy.gov/buildings/energyplus/weatherdata/4_north_and_central_america_wmo_region_4/PRI_Roosevelt.Roads.NAS.785350_TMY3.zip
Malad City,ID,USA,TMY3,725786,42.15,-112.28,-7,1362,http://apps1.eere.energy.gov/buildings/energyplus/weatherdata/4_north_and_central_america_wmo_region_4/1_usa/USA_ID_Malad.City.AP.725786_TMY3.zip
Changsha,Hunan,CHN,CSWD,576870,28.22,112.92,8,68,http://apps1.eere.energy.gov/buildings/energyplus/weatherdata/2_asia_wmo_region_2/CHN_Hunan.Changsha.576870_CSWD.zip
Gambell,AK,USA,TMY3,702040,63.78,-171.75,-9,8,http://apps1.eere.energy.gov/buildings/energyplus/weatherdata/4_north_and_central_america_wmo_region_4/1_usa/USA_AK_Gambell.702040_TMY3.zip
Seattle-Tacoma/Int'l A,WA,USA,TMY--24233,727930,47.45,-122.3,-8,137,http://apps1.eere.energy.gov/buildings/energyplus/weatherdata/4_north_and_central_america_wmo_region_4/1_usa/USA_WA_Seattle-Tacoma.Intl.AP.727930_TMY.zip
WARSAW,-,POL,IWEC Data,123750,52.17,20.97,1,107,http://apps1.eere.energy.gov/buildings/energyplus/weatherdata/6_europe_wmo_region_6/POL_Warsaw.123750_IWEC.zip
Worthington  Awos,MN,USA,TMY3,726587,43.65,-95.58,-6,480,http://apps1.eere.energy.gov/buildings/energyplus/weatherdata/4_north_and_central_america_wmo_region_4/1_usa/USA_MN_Worthington.AWOS.726587_TMY3.zip
CHOLUTECA,-,HND,SWERA,787240,13.3,-87.18,-6,48,http://apps1.eere.energy.gov/buildings/energyplus/weatherdata/4_north_and_central_america_wmo_region_4/HND_Choluteca.787240_SWERA.zip
Tonghe,Heilongjiang,CHN,CSWD,509630,45.97,128.73,8,108.6,http://apps1.eere.energy.gov/buildings/energyplus/weatherdata/2_asia_wmo_region_2/CHN_Heilongjiang.Tonghe.509630_CSWD.zip
TALLAHASSEE,FL,USA,TMY2-93805,722140,30.38,-84.37,-5,21,http://apps1.eere.energy.gov/buildings/energyplus/weatherdata/4_north_and_central_america_wmo_region_4/1_usa/USA_FL_Tallahassee.722140_TMY2.zip
COLUMBUS,GA,USA,TMY2-93842,722255,32.52,-84.95,-5,136,http://apps1.eere.energy.gov/buildings/energyplus/weatherdata/4_north_and_central_america_wmo_region_4/1_usa/USA_GA_Columbus.722255_TMY2.zip
Corpus Christi,TX,USA,TMY--12924,722510,27.77,-97.5,-6,13,http://apps1.eere.energy.gov/buildings/energyplus/weatherdata/4_north_and_central_america_wmo_region_4/1_usa/USA_TX_Corpus.Christi.Intl.AP.722510_TMY.zip
Farmington Four Corners Regl,NM,USA,TMY3,723658,36.75,-108.23,-7,1675,http://apps1.eere.energy.gov/buildings/energyplus/weatherdata/4_north_and_central_america_wmo_region_4/1_usa/USA_NM_Farmington-Four.Corners.Rgnl.AP.723658_TMY3.zip
Macon,GA,USA,TMY-- 3813,722170,32.7,-83.65,-5,110,http://apps1.eere.energy.gov/buildings/energyplus/weatherdata/4_north_and_central_america_wmo_region_4/1_usa/USA_GA_Macon-Middle.Georgia.Rgnl.AP.722170_TMY.zip
Darlag,Qinghai,CHN,CSWD,560460,33.75,99.65,8,3967.5,http://apps1.eere.energy.gov/buildings/energyplus/weatherdata/2_asia_wmo_region_2/CHN_Qinghai.Darlag.560460_CSWD.zip
Fort Madison,IA,USA,TMY3,725483,40.67,-91.33,-6,221,http://apps1.eere.energy.gov/buildings/energyplus/weatherdata/4_north_and_central_america_wmo_region_4/1_usa/USA_IA_Fort.Madison.Muni.AP.725483_TMY3.zip
Lafayette Regional Ap,LA,USA,TMY3,722405,30.2,-91.98,-6,12,http://apps1.eere.energy.gov/buildings/energyplus/weatherdata/4_north_and_central_america_wmo_region_4/1_usa/USA_LA_Lafayette.RgnlAP.722405_TMY3.zip
KAGOSHIMA,-,JPN,IWEC Data,478270,31.57,130.55,9,5,http://apps1.eere.energy.gov/buildings/energyplus/weatherdata/2_asia_wmo_region_2/JPN_Kagoshima.478270_IWEC.zip
Nitchequon,PQ,CAN,WYEC2-B-15703,CAN270,53.2,-70.9,-5,536,http://apps1.eere.energy.gov/buildings/energyplus/weatherdata/4_north_and_central_america_wmo_region_4/3_canada/CAN_PQ_Nitchequon.CAN270_CWEC.zip
Sumter Shaw Afb,SC,USA,TMY3,747900,33.97,-80.47,-5,74,http://apps1.eere.energy.gov/buildings/energyplus/weatherdata/4_north_and_central_america_wmo_region_4/1_usa/USA_SC_Shaw.AFB.747900_TMY3.zip
PITTSBURGH,PA,USA,TMY2-94823,725200,40.5,-80.22,-5,373,http://apps1.eere.energy.gov/buildings/energyplus/weatherdata/4_north_and_central_america_wmo_region_4/1_usa/USA_PA_Pittsburgh.725200_TMY2.zip
Savannah Intl Ap,GA,USA,TMY3,722070,32.12,-81.2,-5,14,http://apps1.eere.energy.gov/buildings/energyplus/weatherdata/4_north_and_central_america_wmo_region_4/1_usa/USA_GA_Savannah.Intl.AP.722070_TMY3.zip
Mineral Wells Municipal Ap,TX,USA,TMY3,722597,32.78,-98.07,-6,284,http://apps1.eere.energy.gov/buildings/energyplus/weatherdata/4_north_and_central_america_wmo_region_4/1_usa/USA_TX_Mineral.Wells.Muni.AP.722597_TMY3.zip
Stillwater Rgnl,OK,USA,TMY3,723545,36.15,-97.08,-6,308,http://apps1.eere.energy.gov/buildings/energyplus/weatherdata/4_north_and_central_america_wmo_region_4/1_usa/USA_OK_Stillwater.Rgnl.AP.723545_TMY3.zip
New Haven Tweed Airport,CT,USA,TMY3,725045,41.27,-72.88,-5,2,http://apps1.eere.energy.gov/buildings/energyplus/weatherdata/4_north_and_central_america_wmo_region_4/1_usa/USA_CT_New.Haven-Tweed.AP.725045_TMY3.zip
Anderson County Ap,SC,USA,TMY3,723125,34.5,-82.72,-5,232,http://apps1.eere.energy.gov/buildings/energyplus/weatherdata/4_north_and_central_america_wmo_region_4/1_usa/USA_SC_Anderson.County.AP.723125_TMY3.zip
Dodge City Regional Ap,KS,USA,TMY3,724510,37.77,-99.97,-6,785,http://apps1.eere.energy.gov/buildings/energyplus/weatherdata/4_north_and_central_america_wmo_region_4/1_usa/USA_KS_Dodge.City.Rgnl.AP.724510_TMY3.zip
Bandar Abass,-,IRN,ITMY,408750,27.13,56.22,3,9.8,http://apps1.eere.energy.gov/buildings/energyplus/weatherdata/2_asia_wmo_region_2/IRN_Bandar.Abass.408750_ITMY.zip
Raipur,Chhattisgarh,IND,ISHRAE,428750,21.23,81.65,5.5,298,http://apps1.eere.energy.gov/buildings/energyplus/weatherdata/2_asia_wmo_region_2/IND_Raipur.428750_ISHRAE.zip
Ogden Hinkley Airport,UT,USA,TMY3,725750,41.2,-112.02,-7,1362,http://apps1.eere.energy.gov/buildings/energyplus/weatherdata/4_north_and_central_america_wmo_region_4/1_usa/USA_UT_Ogden-Hinkley.AP.725750_TMY3.zip
DUBLIN,-,IRL,IWEC Data,39690,53.43,-6.25,0,85,http://apps1.eere.energy.gov/buildings/energyplus/weatherdata/6_europe_wmo_region_6/IRL_Dublin.039690_IWEC.zip
Roanoke Regional Ap,VA,USA,TMY3,724110,37.32,-79.97,-5,350,http://apps1.eere.energy.gov/buildings/energyplus/weatherdata/4_north_and_central_america_wmo_region_4/1_usa/USA_VA_Roanoke.Rgnl.AP-Woodrum.Field.724110_TMY3.zip
Shannon Arpt,VA,USA,TMY3,724033,38.27,-77.45,-5,26,http://apps1.eere.energy.gov/buildings/energyplus/weatherdata/4_north_and_central_america_wmo_region_4/1_usa/USA_VA_Fredericksburg-Shannon.AP.724033_TMY3.zip
YOUNGSTOWN,OH,USA,TMY2-14852,725250,41.27,-80.67,-5,361,http://apps1.eere.energy.gov/buildings/energyplus/weatherdata/4_north_and_central_america_wmo_region_4/1_usa/USA_OH_Youngstown.725250_TMY2.zip
Charleston,WV,USA,TMY--13866,724140,38.37,-81.6,-5,299,http://apps1.eere.energy.gov/buildings/energyplus/weatherdata/4_north_and_central_america_wmo_region_4/1_usa/USA_WV_Charleston-Yeager.AP.724140_TMY.zip
Fair Field,IA,USA,TMY3,726498,41.05,-91.98,-6,244,http://apps1.eere.energy.gov/buildings/energyplus/weatherdata/4_north_and_central_america_wmo_region_4/1_usa/USA_IA_Fairfield.Muni.AP.726498_TMY3.zip
Zakopane,-,POL,IMGW,126250,49.3,19.97,1,857,http://apps1.eere.energy.gov/buildings/energyplus/weatherdata/6_europe_wmo_region_6/POL_Zakopane.126250_IMGW.zip
FAIRBANKS,AK,USA,TMY2-26411,702610,64.82,-147.87,-9,138,http://apps1.eere.energy.gov/buildings/energyplus/weatherdata/4_north_and_central_america_wmo_region_4/1_usa/USA_AK_Fairbanks.702610_TMY2.zip
Port Hedland Airport,WA,AUS,RMY,943120,-20.37,118.63,8,9,http://apps1.eere.energy.gov/buildings/energyplus/weatherdata/5_southwest_pacific_wmo_region_5/AUS_WA.Port.Hedland.Airport.943120_RMY.zip
Allentown,PA,USA,TMY--14737,725170,40.65,-75.43,-5,117,http://apps1.eere.energy.gov/buildings/energyplus/weatherdata/4_north_and_central_america_wmo_region_4/1_usa/USA_PA_Allentown-Lehigh.Valley.Intl.AP.725170_TMY.zip
Minchumina,AK,USA,TMY3,702460,63.88,-152.28,-9,213,http://apps1.eere.energy.gov/buildings/energyplus/weatherdata/4_north_and_central_america_wmo_region_4/1_usa/USA_AK_Minchumina.702460_TMY3.zip
Henderson City,KY,USA,TMY3,724238,37.82,-87.68,-6,117,http://apps1.eere.energy.gov/buildings/energyplus/weatherdata/4_north_and_central_america_wmo_region_4/1_usa/USA_KY_Henderson.City.County.AP.724238_TMY3.zip
Auckland,Auckland,New Zealand,TMY2 NIWA 1962 C74082,931190,-37.01,174.79,12,33,http://apps1.eere.energy.gov/buildings/energyplus/weatherdata/5_southwest_pacific_wmo_region_5/NZL_Auckland-Auckland.AK.931190_NIWA.zip
Southern Pines Awos,NC,USA,TMY3,723143,35.23,-79.4,-5,141,http://apps1.eere.energy.gov/buildings/energyplus/weatherdata/4_north_and_central_america_wmo_region_4/1_usa/USA_NC_Southern.Pines-Moore.County.AP.723143_TMY3.zip
Aswan,Aswan,EGY,ETMY,624140,23.97,32.78,2,194,http://apps1.eere.energy.gov/buildings/energyplus/weatherdata/1_africa_wmo_region_1/EGY_Aswan.624140_ETMY.zip
Detroit Lakes Awos,MN,USA,TMY3,727457,46.83,-95.88,-6,426,http://apps1.eere.energy.gov/buildings/energyplus/weatherdata/4_north_and_central_america_wmo_region_4/1_usa/USA_MN_Detroit.Lakes.AWOS.727457_TMY3.zip
Auburn Lewiston,ME,USA,TMY3,726184,44.05,-70.28,-5,88,http://apps1.eere.energy.gov/buildings/energyplus/weatherdata/4_north_and_central_america_wmo_region_4/1_usa/USA_ME_Auburn-Lewiston.Muni.AP.726184_TMY3.zip
Detroit/City,MI,USA,TMY--14822,725375,42.5,-83,-5,190,http://apps1.eere.energy.gov/buildings/energyplus/weatherdata/4_north_and_central_america_wmo_region_4/1_usa/USA_MI_Detroit-City.AP.725375_TMY.zip
Rockport Aransas Co,TX,USA,TMY3,722524,28.08,-97.05,-6,8,http://apps1.eere.energy.gov/buildings/energyplus/weatherdata/4_north_and_central_america_wmo_region_4/1_usa/USA_TX_Rockport-Aransas.Co.AP.722524_TMY3.zip
EVANSVILLE,IN,USA,TMY2-93817,724320,38.05,-87.53,-6,118,http://apps1.eere.energy.gov/buildings/energyplus/weatherdata/4_north_and_central_america_wmo_region_4/1_usa/USA_IN_Evansville.724320_TMY2.zip
SPRINGFIELD,IL,USA,TMY2-93822,724390,39.83,-89.67,-6,187,http://apps1.eere.energy.gov/buildings/energyplus/weatherdata/4_north_and_central_america_wmo_region_4/1_usa/USA_IL_Springfield.724390_TMY2.zip
VOI,-,KEN,SWERA,637930,-3.4,38.57,3,579,http://apps1.eere.energy.gov/buildings/energyplus/weatherdata/1_africa_wmo_region_1/KEN_Voi.637930_SWERA.zip
Jamnagar,Gujarat,IND,ISHRAE,427340,22.47,70.02,5.5,20,http://apps1.eere.energy.gov/buildings/energyplus/weatherdata/2_asia_wmo_region_2/IND_Jamnagar.427340_ISHRAE.zip
ROCHESTER,MN,USA,TMY2-14925,726440,43.92,-92.5,-6,402,http://apps1.eere.energy.gov/buildings/energyplus/weatherdata/4_north_and_central_america_wmo_region_4/1_usa/USA_MN_Rochester.726440_TMY2.zip
Camarillo  Awos,CA,USA,TMY3,723926,34.22,-119.08,-8,23,http://apps1.eere.energy.gov/buildings/energyplus/weatherdata/4_north_and_central_america_wmo_region_4/1_usa/USA_CA_Camarillo.AWOS.723926_TMY3.zip
Parma,-,ITA,IGDG,161300,44.48,10.19,1,68,http://apps1.eere.energy.gov/buildings/energyplus/weatherdata/6_europe_wmo_region_6/ITA_Parma.161300_IGDG.zip
Tenerife,-,ESP,SWEC,600200,28.47,-16.25,1,46,http://apps1.eere.energy.gov/buildings/energyplus/weatherdata/6_europe_wmo_region_6/ESP_Tenerife.600200_SWEC.zip
Quebec City,PQ,CAN,WYEC2-B-04708,717080,46.8,-71.38,-5,73,http://apps1.eere.energy.gov/buildings/energyplus/weatherdata/4_north_and_central_america_wmo_region_4/3_canada/CAN_PQ_Quebec.717140_CWEC.zip
Monte Terminillo,-,ITA,IGDG,162190,42.47,12.98,1,1875,http://apps1.eere.energy.gov/buildings/energyplus/weatherdata/6_europe_wmo_region_6/ITA_Monte.Terminillo.162190_IGDG.zip
Mansfield Lahm Municipal Arpt,OH,USA,TMY3,725246,40.82,-82.52,-5,395,http://apps1.eere.energy.gov/buildings/energyplus/weatherdata/4_north_and_central_america_wmo_region_4/1_usa/USA_OH_Mansfield-Lahm.Muni.AP.725246_TMY3.zip
Catania-Sigonella,-,ITA,IGDG,164590,37.4,14.92,1,22,http://apps1.eere.energy.gov/buildings/energyplus/weatherdata/6_europe_wmo_region_6/ITA_Catania-Sigonella.164590_IGDG.zip
HEFEI/LUOGANG,-,CHN,SWERA,583210,31.87,117.23,8,36,http://apps1.eere.energy.gov/buildings/energyplus/weatherdata/2_asia_wmo_region_2/CHN_Anhui.Hefei.583210_SWERA.zip
Pensacola Regional Ap,FL,USA,TMY3,722223,30.48,-87.18,-6,34,http://apps1.eere.energy.gov/buildings/energyplus/weatherdata/4_north_and_central_america_wmo_region_4/1_usa/USA_FL_Pensacola.Rgnl.AP.722223_TMY3.zip
Sherbrooke,PQ,CAN,WYEC2-B-04785,716100,45.43,-71.68,-5,241,http://apps1.eere.energy.gov/buildings/energyplus/weatherdata/4_north_and_central_america_wmo_region_4/3_canada/CAN_PQ_Sherbrooke.716100_CWEC.zip
Roanoke,VA,USA,TMY--13741,724110,37.32,-79.97,-5,358,http://apps1.eere.energy.gov/buildings/energyplus/weatherdata/4_north_and_central_america_wmo_region_4/1_usa/USA_VA_Roanoke.Rgnl.AP-Woodrum.Field.724110_TMY.zip
Burlington,VT,USA,TMY--14742,726170,44.47,-73.15,-5,104,http://apps1.eere.energy.gov/buildings/energyplus/weatherdata/4_north_and_central_america_wmo_region_4/1_usa/USA_VT_Burlington.Intl.AP.726170_TMY.zip
Walnut Ridge  Awos,AR,USA,TMY3,723406,36.13,-90.92,-6,83,http://apps1.eere.energy.gov/buildings/energyplus/weatherdata/4_north_and_central_america_wmo_region_4/1_usa/USA_AR_Walnut.Ridge.AWOS.723406_TMY3.zip
HARBIN,-,CHN,IWEC Data,509530,45.72,126.68,8,143,http://apps1.eere.energy.gov/buildings/energyplus/weatherdata/2_asia_wmo_region_2/CHN_Heilongjiang.Harbin.509530_IWEC.zip
Battle Harbour,NF,CAN,WYEC2-B-CAN06,718170,52.3,-55.83,-3.5,8,http://apps1.eere.energy.gov/buildings/energyplus/weatherdata/4_north_and_central_america_wmo_region_4/3_canada/CAN_NF_Battle.Harbour.718170_CWEC.zip
St Louis Spirit Of St Louis A,MO,USA,TMY3,724345,38.65,-90.65,-6,141,http://apps1.eere.energy.gov/buildings/energyplus/weatherdata/4_north_and_central_america_wmo_region_4/1_usa/USA_MO_St.Louis-Spirit.of.St.Louis.AP.724345_TMY3.zip
Morris Muni  Awos,MN,USA,TMY3,726565,45.57,-95.97,-6,344,http://apps1.eere.energy.gov/buildings/energyplus/weatherdata/4_north_and_central_america_wmo_region_4/1_usa/USA_MN_Morris.Muni.AWOS.726565_TMY3.zip
SIOUX_FALLS,SD,USA,TMY2-14944,726510,43.57,-96.73,-6,435,http://apps1.eere.energy.gov/buildings/energyplus/weatherdata/4_north_and_central_america_wmo_region_4/1_usa/USA_SD_Sioux.Falls.726510_TMY2.zip
Hyderabad,Andhra Pradesh,IND,ISHRAE,431280,17.45,78.47,5.5,545,http://apps1.eere.energy.gov/buildings/energyplus/weatherdata/2_asia_wmo_region_2/IND_Hyderabad.431280_ISHRAE.zip
Alliance Municipal,NE,USA,TMY3,725635,42.05,-102.8,-7,1198,http://apps1.eere.energy.gov/buildings/energyplus/weatherdata/4_north_and_central_america_wmo_region_4/1_usa/USA_NE_Alliance.Muni.AP.725635_TMY3.zip
TONGLIAO,-,CHN,SWERA,541350,43.6,122.27,8,180,http://apps1.eere.energy.gov/buildings/energyplus/weatherdata/2_asia_wmo_region_2/CHN_Nei.Mongol.Tongliao.541350_SWERA.zip
Minocqua Woodruff,WI,USA,TMY3,726404,45.93,-89.73,-6,496,http://apps1.eere.energy.gov/buildings/energyplus/weatherdata/4_north_and_central_america_wmo_region_4/1_usa/USA_WI_Minocqua-Woodruff-Lee.Field.726404_TMY3.zip
Winslow,AZ,USA,TMY--23194,723740,35.03,-110.71,-7,1490,http://apps1.eere.energy.gov/buildings/energyplus/weatherdata/4_north_and_central_america_wmo_region_4/1_usa/USA_AZ_Winslow.Muni.AP.723740_TMY.zip
Portland International Ap,OR,USA,TMY3,726980,45.6,-122.62,-8,6,http://apps1.eere.energy.gov/buildings/energyplus/weatherdata/4_north_and_central_america_wmo_region_4/1_usa/USA_OR_Portland.Intl.AP.726980_TMY3.zip
Soria,-,ESP,SWEC,81480,41.77,-2.48,1,82,http://apps1.eere.energy.gov/buildings/energyplus/weatherdata/6_europe_wmo_region_6/ESP_Soria.081480_SWEC.zip
Climate Zone 12,CA,USA,CTZRV2,724830,38.5,-121.5,-8,5,http://apps1.eere.energy.gov/buildings/energyplus/weatherdata/4_north_and_central_america_wmo_region_4/2_california_climate_zones/CZ12RV2.zip
NICE,-,FRA,IWEC Data,76900,43.65,7.2,1,10,http://apps1.eere.energy.gov/buildings/energyplus/weatherdata/6_europe_wmo_region_6/FRA_Nice.076900_IWEC.zip
SAN_FRANCISCO,CA,USA,TMY2-23234,724940,37.62,-122.38,-8,5,http://apps1.eere.energy.gov/buildings/energyplus/weatherdata/4_north_and_central_america_wmo_region_4/1_usa/USA_CA_San.Francisco.724940_TMY2.zip
Gainesville Regional Ap,FL,USA,TMY3,722146,29.7,-82.28,-5,41,http://apps1.eere.energy.gov/buildings/energyplus/weatherdata/4_north_and_central_america_wmo_region_4/1_usa/USA_FL_Gainesville.Rgnl.AP.722146_TMY3.zip
ASHEVILLE,NC,USA,TMY2-03812,723150,35.43,-82.53,-5,661,http://apps1.eere.energy.gov/buildings/energyplus/weatherdata/4_north_and_central_america_wmo_region_4/1_usa/USA_NC_Asheville.723150_TMY2.zip
Dutch Harbor,AK,USA,TMY3,704890,53.9,-166.55,-9,4,http://apps1.eere.energy.gov/buildings/energyplus/weatherdata/4_north_and_central_america_wmo_region_4/1_usa/USA_AK_Unalaska-Dutch.Harbor.Field.704890_TMY3.zip
Millinocket Municipal Ap,ME,USA,TMY3,726196,45.65,-68.68,-5,124,http://apps1.eere.energy.gov/buildings/energyplus/weatherdata/4_north_and_central_america_wmo_region_4/1_usa/USA_ME_Millinocket.Muni.AP.726196_TMY3.zip
Climate Zone 15,CA,USA,CTZRV2,747185,32.8,-115.6,-8,-9,http://apps1.eere.energy.gov/buildings/energyplus/weatherdata/4_north_and_central_america_wmo_region_4/2_california_climate_zones/CZ15RV2.zip
INDIANAPOLIS,IN,USA,TMY2-93819,724380,39.73,-86.28,-5,246,http://apps1.eere.energy.gov/buildings/energyplus/weatherdata/4_north_and_central_america_wmo_region_4/1_usa/USA_IN_Indianapolis.724380_TMY2.zip
Pensacola Forest Sherman Nas,FL,USA,TMY3,722225,30.35,-87.32,-6,10,http://apps1.eere.energy.gov/buildings/energyplus/weatherdata/4_north_and_central_america_wmo_region_4/1_usa/USA_FL_Pensacola-Forest.Sherman.NAS.722225_TMY3.zip
Akron Washington Co Ap,CO,USA,TMY3,724698,40.17,-103.23,-7,1421,http://apps1.eere.energy.gov/buildings/energyplus/weatherdata/4_north_and_central_america_wmo_region_4/1_usa/USA_CO_Akron-Washington.County.AP.724698_TMY3.zip
Vance Afb,OK,USA,TMY3,723535,36.33,-97.92,-6,408,http://apps1.eere.energy.gov/buildings/energyplus/weatherdata/4_north_and_central_america_wmo_region_4/1_usa/USA_OK_Vance.AFB.723535_TMY3.zip
Akron/Canton,OH,USA,TMY--14895,725210,40.92,-81.43,-5,377,http://apps1.eere.energy.gov/buildings/energyplus/weatherdata/4_north_and_central_america_wmo_region_4/1_usa/USA_OH_Akron.Canton.Rgnl.AP.725210_TMY.zip
Washington Dc Reagan Ap,VA,USA,TMY3,724050,38.87,-77.03,-5,3,http://apps1.eere.energy.gov/buildings/energyplus/weatherdata/4_north_and_central_america_wmo_region_4/1_usa/USA_VA_Arlington-Ronald.Reagan.Washington.Natl.AP.724050_TMY3.zip
Molokai  Amos,HI,USA,TMY3,911860,21.15,-157.1,-10,137,http://apps1.eere.energy.gov/buildings/energyplus/weatherdata/4_north_and_central_america_wmo_region_4/1_usa/USA_HI_Molokai.AWOS.911860_TMY3.zip
Luzhou,Sichuan,CHN,CSWD,576020,28.88,105.43,8,334.8,http://apps1.eere.energy.gov/buildings/energyplus/weatherdata/2_asia_wmo_region_2/CHN_Sichuan.Luzhou.576020_CSWD.zip
Hydaburg Seaplane,AK,USA,TMY3,703884,55.2,-132.83,-9,0,http://apps1.eere.energy.gov/buildings/energyplus/weatherdata/4_north_and_central_america_wmo_region_4/1_usa/USA_AK_Hydaburg.Seaplane.Base.703884_TMY3.zip
TASHKENT,-,UZB,IWEC Data,384570,41.27,69.27,5,458,http://apps1.eere.energy.gov/buildings/energyplus/weatherdata/2_asia_wmo_region_2/UZB_Tashkent.384570_IWEC.zip
Burley Municipal Arpt,ID,USA,TMY3,725867,42.53,-113.77,-7,1267,http://apps1.eere.energy.gov/buildings/energyplus/weatherdata/4_north_and_central_america_wmo_region_4/1_usa/USA_ID_Burley.Muni.AP.725867_TMY3.zip
Klamath Falls Intl Ap  Uo,OR,USA,TMY3,725895,42.22,-121.74,-8,1220,http://apps1.eere.energy.gov/buildings/energyplus/weatherdata/4_north_and_central_america_wmo_region_4/1_usa/USA_OR_Klamath.Falls.Intl.AP.725895_TMY3.zip
Crestview Bob Sikes Ap,FL,USA,TMY3,722215,30.78,-86.52,-6,58,http://apps1.eere.energy.gov/buildings/energyplus/weatherdata/4_north_and_central_america_wmo_region_4/1_usa/USA_FL_Crestview-Bob.Sikes.AP.722215_TMY3.zip
YULIN,-,CHN,SWERA,536460,38.23,109.7,8,1058,http://apps1.eere.energy.gov/buildings/energyplus/weatherdata/2_asia_wmo_region_2/CHN_Shaanxi.Yulin.536460_SWERA.zip
Paso Real de San Diego,-,CUB,SWERA,783170,22.57,-83.3,-5,44,http://apps1.eere.energy.gov/buildings/energyplus/weatherdata/4_north_and_central_america_wmo_region_4/CUB_Paso.Real.de.San.Diego.783170_SWERA.zip
Zhijiang,Hunan,CHN,CSWD,577450,27.45,109.68,8,272.2,http://apps1.eere.energy.gov/buildings/energyplus/weatherdata/2_asia_wmo_region_2/CHN_Hunan.Zhijiang.577450_CSWD.zip
Farmville,VA,USA,TMY3,724017,37.35,-78.43,-5,125,http://apps1.eere.energy.gov/buildings/energyplus/weatherdata/4_north_and_central_america_wmo_region_4/1_usa/USA_VA_Farmville.Muni.AP.724017_TMY3.zip
BOISE,ID,USA,TMY2-24131,726810,43.57,-116.22,-7,874,http://apps1.eere.energy.gov/buildings/energyplus/weatherdata/4_north_and_central_america_wmo_region_4/1_usa/USA_ID_Boise.726810_TMY2.zip
WATERLOO,IA,USA,TMY2-94910,725480,42.55,-92.4,-6,265,http://apps1.eere.energy.gov/buildings/energyplus/weatherdata/4_north_and_central_america_wmo_region_4/1_usa/USA_IA_Waterloo.725480_TMY2.zip
Glen Burnie/Baltimore/,MD,USA,TMY--93721,724060,39.18,-76.67,-5,47,http://apps1.eere.energy.gov/buildings/energyplus/weatherdata/4_north_and_central_america_wmo_region_4/1_usa/USA_MD_Baltimore-Washington.Intl.AP.724060_TMY.zip
Monterey Naf,CA,USA,TMY3,724915,36.6,-121.87,-8,50,http://apps1.eere.energy.gov/buildings/energyplus/weatherdata/4_north_and_central_america_wmo_region_4/1_usa/USA_CA_Monterey.NAF.724915_TMY3.zip
Santiago de Cuba,-,CUB,SWERA,782640,19.97,-75.85,-5,69,http://apps1.eere.energy.gov/buildings/energyplus/weatherdata/4_north_and_central_america_wmo_region_4/CUB_Santiago.de.Cuba.782640_SWERA.zip
Townsville Aero,QLD,AUS,RMY,942940,-19.25,146.77,10,9,http://apps1.eere.energy.gov/buildings/energyplus/weatherdata/5_southwest_pacific_wmo_region_5/AUS_QLD.Townsville.Aero.942940_RMY.zip
KANGNUNG,-,KOR,IWEC Data,471050,37.75,128.9,9,27,http://apps1.eere.energy.gov/buildings/energyplus/weatherdata/2_asia_wmo_region_2/KOR_Kangnung.471050_IWEC.zip
Orange City,IA,USA,TMY3,725489,42.98,-96.07,-6,431,http://apps1.eere.energy.gov/buildings/energyplus/weatherdata/4_north_and_central_america_wmo_region_4/1_usa/USA_IA_Orange.City.Muni.AP.725489_TMY3.zip
St John's,NF,CAN,WYEC2-B-14521,718010,47.62,-52.73,-3.5,140,http://apps1.eere.energy.gov/buildings/energyplus/weatherdata/4_north_and_central_america_wmo_region_4/3_canada/CAN_NF_St.Johns.718010_CWEC.zip
TUNIS,-,TUN,IWEC Data,607150,36.83,10.23,1,4,http://apps1.eere.energy.gov/buildings/energyplus/weatherdata/1_africa_wmo_region_1/TUN_Tunis.607150_IWEC.zip
Beatrice Municipal,NE,USA,TMY3,725515,40.3,-96.75,-6,403,http://apps1.eere.energy.gov/buildings/energyplus/weatherdata/4_north_and_central_america_wmo_region_4/1_usa/USA_NE_Beatrice.Muni.AP.725515_TMY3.zip
Rawlins Municipal Ap,WY,USA,TMY3,725745,41.8,-107.2,-7,2053,http://apps1.eere.energy.gov/buildings/energyplus/weatherdata/4_north_and_central_america_wmo_region_4/1_usa/USA_WY_Rawlins.Muni.AP.725745_TMY3.zip
PORTLAND,OR,USA,TMY2-24229,726980,45.6,-122.6,-8,12,http://apps1.eere.energy.gov/buildings/energyplus/weatherdata/4_north_and_central_america_wmo_region_4/1_usa/USA_OR_Portland.726980_TMY2.zip
Bhopal,Madhya Pradesh,IND,ISHRAE,426670,23.28,77.35,5.5,523,http://apps1.eere.energy.gov/buildings/energyplus/weatherdata/2_asia_wmo_region_2/IND_Bhopal.426670_ISHRAE.zip
Red Bluff Municipal Arpt,CA,USA,TMY3,725910,40.15,-122.25,-8,106,http://apps1.eere.energy.gov/buildings/energyplus/weatherdata/4_north_and_central_america_wmo_region_4/1_usa/USA_CA_Red.Bluff.Muni.AP.725910_TMY3.zip
Gangca,Qinghai,CHN,CSWD,527540,37.33,100.13,8,3301.5,http://apps1.eere.energy.gov/buildings/energyplus/weatherdata/2_asia_wmo_region_2/CHN_Qinghai.Gangca.527540_CSWD.zip
Prescott Love Field,AZ,USA,TMY3,723723,34.65,-112.42,-7,1537,http://apps1.eere.energy.gov/buildings/energyplus/weatherdata/4_north_and_central_america_wmo_region_4/1_usa/USA_AZ_Prescott-Love.Field.723723_TMY3.zip
Zielona Gora,-,POL,IMGW,124000,51.93,15.5,1,192,http://apps1.eere.energy.gov/buildings/energyplus/weatherdata/6_europe_wmo_region_6/POL_Zielona.Gora.124000_IMGW.zip
Soda Springs Tigert,ID,USA,TMY3,725868,42.65,-111.58,-7,1780,http://apps1.eere.energy.gov/buildings/energyplus/weatherdata/4_north_and_central_america_wmo_region_4/1_usa/USA_ID_Soda.Springs-Tigert.AP.725868_TMY3.zip
Keokuk Muni,IA,USA,TMY3,725456,40.47,-91.43,-6,205,http://apps1.eere.energy.gov/buildings/energyplus/weatherdata/4_north_and_central_america_wmo_region_4/1_usa/USA_IA_Keokuk.Muni.AP.725456_TMY3.zip
Pawtucket  Awos,RI,USA,TMY3,725054,41.92,-71.5,-5,134,http://apps1.eere.energy.gov/buildings/energyplus/weatherdata/4_north_and_central_america_wmo_region_4/1_usa/USA_RI_Pawtucket.AWOS.725054_TMY3.zip
GUATEMALA/LA_AURORA,GU,GTM,SWERA,786410,14.58,-90.52,-6,1489,http://apps1.eere.energy.gov/buildings/energyplus/weatherdata/4_north_and_central_america_wmo_region_4/GTM_Guatemala-La.Aurora.786410_SWERA.zip
TURPAN,-,CHN,SWERA,515730,42.93,89.2,8,37,http://apps1.eere.energy.gov/buildings/energyplus/weatherdata/2_asia_wmo_region_2/CHN_Xinjiang.Uygur.Turpan.515730_SWERA.zip
New Plymouth,Taranaki,New Zealand,TMY2 NIWA 2283 C94012,933090,-39.01,174.18,12,30,http://apps1.eere.energy.gov/buildings/energyplus/weatherdata/5_southwest_pacific_wmo_region_5/NZL_Taranaki-New.Plymouth.NP.933090_NIWA.zip
Napier,Hawkes Bay,New Zealand,TMY2 NIWA 2980 D96484,933730,-39.46,176.86,12,3,http://apps1.eere.energy.gov/buildings/energyplus/weatherdata/5_southwest_pacific_wmo_region_5/NZL_East.Coast-Napier.EC.933730_NIWA.zip
Gander Int'l,NF,CAN,WYEC2-B-14509,718030,48.95,-54.57,-3.5,151,http://apps1.eere.energy.gov/buildings/energyplus/weatherdata/4_north_and_central_america_wmo_region_4/3_canada/CAN_NF_Gander.718030_CWEC.zip
Birmingham Municipal Ap,AL,USA,TMY3,722280,33.57,-86.75,-6,189,http://apps1.eere.energy.gov/buildings/energyplus/weatherdata/4_north_and_central_america_wmo_region_4/1_usa/USA_AL_Birmingham.Muni.AP.722280_TMY3.zip
Crossville Memorial Ap,TN,USA,TMY3,723265,35.95,-85.08,-6,569,http://apps1.eere.energy.gov/buildings/energyplus/weatherdata/4_north_and_central_america_wmo_region_4/1_usa/USA_TN_Crossville.Mem.AP.723265_TMY3.zip
Nyingchi,Tibet,CHN,CSWD,563120,29.67,94.33,8,2991.8,http://apps1.eere.energy.gov/buildings/energyplus/weatherdata/2_asia_wmo_region_2/CHN_Tibet.Nyingchi.563120_CSWD.zip
Mudanjiang,Heilongjiang,CHN,CSWD,540940,44.57,129.6,8,241.4,http://apps1.eere.energy.gov/buildings/energyplus/weatherdata/2_asia_wmo_region_2/CHN_Heilongjiang.Mudanjiang.540940_CSWD.zip
MAKINDU,-,KEN,SWERA,637660,-2.28,37.83,3,1000,http://apps1.eere.energy.gov/buildings/energyplus/weatherdata/1_africa_wmo_region_1/KEN_Makindu.637660_SWERA.zip
Melbourne,VIC,AUS,RMY,948680,-37.82,144.97,10,32,http://apps1.eere.energy.gov/buildings/energyplus/weatherdata/5_southwest_pacific_wmo_region_5/AUS_VIC.Melbourne.948680_RMY.zip
HOTAN,-,CHN,SWERA,518280,37.13,79.93,8,1375,http://apps1.eere.energy.gov/buildings/energyplus/weatherdata/2_asia_wmo_region_2/CHN_Kinjiang.Uyhur.Hotan.518280_SWERA.zip
Minhe,Qinghai,CHN,CSWD,528760,36.32,102.85,8,1813.9,http://apps1.eere.energy.gov/buildings/energyplus/weatherdata/2_asia_wmo_region_2/CHN_Qinghai.Minhe.528760_CSWD.zip
Mercedita,PR,PRI,TMY3,785203,18,-66.55,-4,8,http://apps1.eere.energy.gov/buildings/energyplus/weatherdata/4_north_and_central_america_wmo_region_4/PRI_Mercedita.AP.785203_TMY3.zip
Turpan,Xinjiang Uygur,CHN,CSWD,515730,42.93,89.2,8,34.5,http://apps1.eere.energy.gov/buildings/energyplus/weatherdata/2_asia_wmo_region_2/CHN_Xinjiang.Uygur.Turpan.515730_CSWD.zip
Goodland Renner Field,KS,USA,TMY3,724650,39.37,-101.7,-7,1111,http://apps1.eere.energy.gov/buildings/energyplus/weatherdata/4_north_and_central_america_wmo_region_4/1_usa/USA_KS_Goodland-Renner.Field.724650_TMY3.zip
Alpena,MI,USA,TMY--94849,726390,45.07,-83.57,-5,211,http://apps1.eere.energy.gov/buildings/energyplus/weatherdata/4_north_and_central_america_wmo_region_4/1_usa/USA_MI_Alpena.County.Rgnl.AP.726390_TMY.zip
Pamplona,-,ESP,SWEC,-,42.76,-1.64,1,363,http://apps1.eere.energy.gov/buildings/energyplus/weatherdata/6_europe_wmo_region_6/ESP_Pamplona.080850_SWEC.zip
YAKUTSK,-,RUS,IWEC Data,249590,62.08,129.75,9,103,http://apps1.eere.energy.gov/buildings/energyplus/weatherdata/2_asia_wmo_region_2/RUS_Yakutsk.249590_IWEC.zip
Spencer,IA,USA,TMY3,726500,43.17,-95.15,-6,408,http://apps1.eere.energy.gov/buildings/energyplus/weatherdata/4_north_and_central_america_wmo_region_4/1_usa/USA_IA_Spencer.Muni.AP.726500_TMY3.zip
Shangzhi,Heilongjiang,CHN,CSWD,509680,45.22,127.97,8,189.7,http://apps1.eere.energy.gov/buildings/energyplus/weatherdata/2_asia_wmo_region_2/CHN_Heilongjiang.Shangzhi.509680_CSWD.zip
Hongjia,Zhejiang,CHN,CSWD,586650,28.62,121.42,8,4.6,http://apps1.eere.energy.gov/buildings/energyplus/weatherdata/2_asia_wmo_region_2/CHN_Zhejiang.Hongjia.586650_CSWD.zip
Kalamunda Bickley,WA,AUS,RMY,956100,-32.02,116.13,8,385,http://apps1.eere.energy.gov/buildings/energyplus/weatherdata/5_southwest_pacific_wmo_region_5/AUS_WA.Kalamunda-Bickley.956100_RMY.zip
Grissom Arb,IN,USA,TMY3,725335,40.65,-86.15,-5,253,http://apps1.eere.energy.gov/buildings/energyplus/weatherdata/4_north_and_central_america_wmo_region_4/1_usa/USA_IN_Grissom.AFB.725335_TMY3.zip
Franklin Naas,VA,USA,TMY3,723083,36.7,-76.9,-5,12,http://apps1.eere.energy.gov/buildings/energyplus/weatherdata/4_north_and_central_america_wmo_region_4/1_usa/USA_VA_Franklin.Muni.AP.723083_TMY3.zip
Brewster Field Arpt,NE,USA,TMY3,725628,40.45,-99.33,-6,704,http://apps1.eere.energy.gov/buildings/energyplus/weatherdata/4_north_and_central_america_wmo_region_4/1_usa/USA_NE_Holdrege-Brewster.Field.725628_TMY3.zip
Fullerton Municipal,CA,USA,TMY3,722976,33.87,-117.98,-8,29,http://apps1.eere.energy.gov/buildings/energyplus/weatherdata/4_north_and_central_america_wmo_region_4/1_usa/USA_CA_Fullerton.Muni.AP.722976_TMY3.zip
LEARMONTH,-,AUS,IWEC Data,943020,-22.23,114.08,8,6,http://apps1.eere.energy.gov/buildings/energyplus/weatherdata/5_southwest_pacific_wmo_region_5/AUS_WA.Learmonth.943020_IWEC.zip
Pune,Maharashtra,IND,ISHRAE,430630,18.53,73.85,5.5,559,http://apps1.eere.energy.gov/buildings/energyplus/weatherdata/2_asia_wmo_region_2/IND_Pune.430630_ISHRAE.zip
Charlotte Douglas Intl Arpt,NC,USA,TMY3,723140,35.22,-80.95,-5,222,http://apps1.eere.energy.gov/buildings/energyplus/weatherdata/4_north_and_central_america_wmo_region_4/1_usa/USA_NC_Charlotte-Douglas.Intl.AP.723140_TMY3.zip
Fort Polk Aaf,LA,USA,TMY3,722390,31.05,-93.18,-6,102,http://apps1.eere.energy.gov/buildings/energyplus/weatherdata/4_north_and_central_america_wmo_region_4/1_usa/USA_LA_Fort.Polk.722390_TMY3.zip
Durango La Plata Co,CO,USA,TMY3,724625,37.15,-107.75,-7,2038,http://apps1.eere.energy.gov/buildings/energyplus/weatherdata/4_north_and_central_america_wmo_region_4/1_usa/USA_CO_Durango-La.Plata.County.AP.724625_TMY3.zip
The Pas,MB,CAN,WYEC2-B-25004,718670,53.97,-101.1,-6,271,http://apps1.eere.energy.gov/buildings/energyplus/weatherdata/4_north_and_central_america_wmo_region_4/3_canada/CAN_MB_The.Pas.718670_CWEC.zip
TOSASHIMIZU,-,JPN,IWEC Data,478980,32.72,133.02,9,33,http://apps1.eere.energy.gov/buildings/energyplus/weatherdata/2_asia_wmo_region_2/JPN_Tosashimizu.478980_IWEC.zip
SIOUX_CITY,IA,USA,TMY2-14943,725570,42.4,-96.38,-6,336,http://apps1.eere.energy.gov/buildings/energyplus/weatherdata/4_north_and_central_america_wmo_region_4/1_usa/USA_IA_Sioux.City.725570_TMY2.zip
Chariton,IA,USA,TMY3,725469,41.03,-93.37,-6,320,http://apps1.eere.energy.gov/buildings/energyplus/weatherdata/4_north_and_central_america_wmo_region_4/1_usa/USA_IA_Chariton.Muni.AP.725469_TMY3.zip
Mount Forest,ON,CAN,WYEC2-B-94857,716310,43.98,-80.75,-5,415,http://apps1.eere.energy.gov/buildings/energyplus/weatherdata/4_north_and_central_america_wmo_region_4/3_canada/CAN_ON_Mount.Forest.716310_CWEC.zip
Wiscasset,ME,USA,TMY3,727135,43.97,-69.72,-5,21,http://apps1.eere.energy.gov/buildings/energyplus/weatherdata/4_north_and_central_america_wmo_region_4/1_usa/USA_ME_Wiscasset.AP.727135_TMY3.zip
Jerusalem-Atarot AP,-,ISR,MSI,401840,31.87,35.22,2,757,http://apps1.eere.energy.gov/buildings/energyplus/weatherdata/6_europe_wmo_region_6/ISR_Jerusalem-Atarot.AP.401840_MSI.zip
Las Vegas/Int'l Airpor,NV,USA,TMY--23169,723860,36.08,-115.17,-8,664,http://apps1.eere.energy.gov/buildings/energyplus/weatherdata/4_north_and_central_america_wmo_region_4/1_usa/USA_NV_Las.Vegas-McCarran.Intl.AP.723860_TMY.zip
Saharanpur,Uttar Pradesh,IND,ISHRAE,5217,29.85,77.88,5.5,274,http://apps1.eere.energy.gov/buildings/energyplus/weatherdata/2_asia_wmo_region_2/IND_Saharanpur.5217_ISHRAE.zip
Estherville Muni,IA,USA,TMY3,726499,43.4,-94.75,-6,401,http://apps1.eere.energy.gov/buildings/energyplus/weatherdata/4_north_and_central_america_wmo_region_4/1_usa/USA_IA_Estherville.Muni.AP.726499_TMY3.zip
Simcoe,ON,CAN,WYEC2-e-94858,715270,42.85,-80.27,-5,241,http://apps1.eere.energy.gov/buildings/energyplus/weatherdata/4_north_and_central_america_wmo_region_4/3_canada/CAN_ON_Simcoe.715270_CWEC.zip
Houma Terrebonne,LA,USA,TMY3,722406,29.57,-90.67,-6,3,http://apps1.eere.energy.gov/buildings/energyplus/weatherdata/4_north_and_central_america_wmo_region_4/1_usa/USA_LA_Houma-Terrebonne.AP.722406_TMY3.zip
Pontevedra,-,ESP,SWEC,80440,42.43,-8.65,1,256,http://apps1.eere.energy.gov/buildings/energyplus/weatherdata/6_europe_wmo_region_6/ESP_Pontevedra.080440_SWEC.zip
Atlanta,GA,USA,TMY--13874,722190,33.65,-84.42,-5,315,http://apps1.eere.energy.gov/buildings/energyplus/weatherdata/4_north_and_central_america_wmo_region_4/1_usa/USA_GA_Atlanta-Hartsfield-Jackson.Intl.AP.722190_TMY.zip
Miles City,MT,USA,TMY--24037,742300,46.43,-105.87,-7,801,http://apps1.eere.energy.gov/buildings/energyplus/weatherdata/4_north_and_central_america_wmo_region_4/1_usa/USA_MT_Miles.City.Muni.AP.742300_TMY.zip
Orlando Intl Arpt,FL,USA,TMY3,722050,28.43,-81.33,-5,29,http://apps1.eere.energy.gov/buildings/energyplus/weatherdata/4_north_and_central_america_wmo_region_4/1_usa/USA_FL_Orlando.Intl.AP.722050_TMY3.zip
FRESNO,CA,USA,TMY2-93193,723890,36.77,-119.72,-8,100,http://apps1.eere.energy.gov/buildings/energyplus/weatherdata/4_north_and_central_america_wmo_region_4/1_usa/USA_CA_Fresno.723890_TMY2.zip
El Dorado Goodwin Field,AR,USA,TMY3,723419,33.22,-92.82,-6,77,http://apps1.eere.energy.gov/buildings/energyplus/weatherdata/4_north_and_central_america_wmo_region_4/1_usa/USA_AR_El.Dorado-Goodwin.Field.723419_TMY3.zip
Renton Muni,WA,USA,TMY3,727934,47.48,-122.22,-8,10,http://apps1.eere.energy.gov/buildings/energyplus/weatherdata/4_north_and_central_america_wmo_region_4/1_usa/USA_WA_Renton.Muni.AP.727934_TMY3.zip
Tongliao,Nei Mongol,CHN,CSWD,541350,43.6,122.27,8,178.7,http://apps1.eere.energy.gov/buildings/energyplus/weatherdata/2_asia_wmo_region_2/CHN_Nei.Mongol.Tongliao.541350_CSWD.zip
Raleigh Durham International,NC,USA,TMY3,723060,35.87,-78.78,-5,127,http://apps1.eere.energy.gov/buildings/energyplus/weatherdata/4_north_and_central_america_wmo_region_4/1_usa/USA_NC_Raleigh-Durham.Intl.AP.723060_TMY3.zip
Toledo,-,ESP,SWEC,82720,39.88,-4.05,1,529,http://apps1.eere.energy.gov/buildings/energyplus/weatherdata/6_europe_wmo_region_6/ESP_Toledo.082720_SWEC.zip
Whiteman Afb,MO,USA,TMY3,724467,38.72,-93.55,-6,255,http://apps1.eere.energy.gov/buildings/energyplus/weatherdata/4_north_and_central_america_wmo_region_4/1_usa/USA_MO_Whiteman.AFB.724467_TMY3.zip
Madrid,-,ESP,SWEC,82210,40.41,-3.68,1,582,http://apps1.eere.energy.gov/buildings/energyplus/weatherdata/6_europe_wmo_region_6/ESP_Madrid.082210_SWEC.zip
ASUNCION,-,PRY,IWEC Data,862180,-25.25,-57.57,-4,101,http://apps1.eere.energy.gov/buildings/energyplus/weatherdata/3_south_america_wmo_region_3/PRY_Asuncion.862180_IWEC.zip
Abilene Dyess Afb,TX,USA,TMY3,690190,32.43,-99.85,-6,545,http://apps1.eere.energy.gov/buildings/energyplus/weatherdata/4_north_and_central_america_wmo_region_4/1_usa/USA_TX_Abilene-Dyess.AFB.690190_TMY3.zip
Aitkin Ndb Awos,MN,USA,TMY3,727504,46.55,-93.68,-6,367,http://apps1.eere.energy.gov/buildings/energyplus/weatherdata/4_north_and_central_america_wmo_region_4/1_usa/USA_MN_Aitkin.AWOS.727504_TMY3.zip
Wheeling Ohio County Ap,WV,USA,TMY3,724275,40.18,-80.65,-5,359,http://apps1.eere.energy.gov/buildings/energyplus/weatherdata/4_north_and_central_america_wmo_region_4/1_usa/USA_WV_Wheeling-Ohio.County.AP.724275_TMY3.zip
Almeria,-,ESP,SWEC,84870,36.85,-2.38,1,21,http://apps1.eere.energy.gov/buildings/energyplus/weatherdata/6_europe_wmo_region_6/ESP_Almeria.084870_SWEC.zip
Corpus Christi Intl Arpt  Ut,TX,USA,TMY3,722510,27.88,-97.63,-6,6,http://apps1.eere.energy.gov/buildings/energyplus/weatherdata/4_north_and_central_america_wmo_region_4/1_usa/USA_TX_Corpus.Christi.Intl.AP.722510_TMY3.zip
Calgary Int'l,AB,CAN,WYEC2-B-25110,718770,51.12,-114.02,-7,1084,http://apps1.eere.energy.gov/buildings/energyplus/weatherdata/4_north_and_central_america_wmo_region_4/3_canada/CAN_AB_Calgary.718770_CWEC.zip
Kailu,Nei Mongol,CHN,CSWD,541340,43.6,121.28,8,241,http://apps1.eere.energy.gov/buildings/energyplus/weatherdata/2_asia_wmo_region_2/CHN_Nei.Mongol.Kailu.541340_CSWD.zip
ACAJUTLA/SONSONATE,-,SLV,SWERA,786500,13.57,-89.83,-6,15,http://apps1.eere.energy.gov/buildings/energyplus/weatherdata/4_north_and_central_america_wmo_region_4/SLV_Acajutla.786500_SWERA.zip
BATTICALOA_(AFB),-,LKA,SWERA,434360,7.72,81.7,6,12,http://apps1.eere.energy.gov/buildings/energyplus/weatherdata/2_asia_wmo_region_2/LKA_Batticaloa.434360_SWERA.zip
MATSUMOTO,-,JPN,IWEC Data,476180,36.25,137.97,9,611,http://apps1.eere.energy.gov/buildings/energyplus/weatherdata/2_asia_wmo_region_2/JPN_Matsumoto.476180_IWEC.zip
OKLAHOMA_CITY,OK,USA,TMY2-13967,723530,35.4,-97.6,-6,397,http://apps1.eere.energy.gov/buildings/energyplus/weatherdata/4_north_and_central_america_wmo_region_4/1_usa/USA_OK_Oklahoma.City.723530_TMY2.zip
Chan Gurney Muni,SD,USA,TMY3,726525,42.92,-97.38,-6,408,http://apps1.eere.energy.gov/buildings/energyplus/weatherdata/4_north_and_central_america_wmo_region_4/1_usa/USA_SD_Yankton-Chan.Gurney.Muni.AP.726525_TMY3.zip
Fort Collins  Awos,CO,USA,TMY3,724769,40.45,-105.02,-7,1529,http://apps1.eere.energy.gov/buildings/energyplus/weatherdata/4_north_and_central_america_wmo_region_4/1_usa/USA_CO_Fort.Collins.AWOS.724769_TMY3.zip
Terre Haute Hulman Regional A,IN,USA,TMY3,724373,39.45,-87.3,-5,175,http://apps1.eere.energy.gov/buildings/energyplus/weatherdata/4_north_and_central_america_wmo_region_4/1_usa/USA_IN_Terre.Haute-Hulman.Rgnl.AP.724373_TMY3.zip
Lesko,-,POL,IMGW,126900,49.45,22.32,1,422,http://apps1.eere.energy.gov/buildings/energyplus/weatherdata/6_europe_wmo_region_6/POL_Lesko.126900_IMGW.zip
Norfolk International Ap,VA,USA,TMY3,723080,36.9,-76.2,-5,7,http://apps1.eere.energy.gov/buildings/energyplus/weatherdata/4_north_and_central_america_wmo_region_4/1_usa/USA_VA_Norfolk.Intl.AP.723080_TMY3.zip
Hays Muni  Awos,KS,USA,TMY3,724518,38.85,-99.27,-6,609,http://apps1.eere.energy.gov/buildings/energyplus/weatherdata/4_north_and_central_america_wmo_region_4/1_usa/USA_KS_Hays.Muni.AWOS.724518_TMY3.zip
Whidbey Island Nas,WA,USA,TMY3,690230,48.35,-122.67,-8,10,http://apps1.eere.energy.gov/buildings/energyplus/weatherdata/4_north_and_central_america_wmo_region_4/1_usa/USA_WA_Whidbey.Island.NAS.690230_TMY3.zip
Shache,Xinjiang Uygur,CHN,CSWD,518110,38.43,77.27,8,1231.2,http://apps1.eere.energy.gov/buildings/energyplus/weatherdata/2_asia_wmo_region_2/CHN_Xinjiang.Uygur.Shache.518110_CSWD.zip
Wenatchee Pangborn,WA,USA,TMY3,727825,47.4,-120.2,-8,379,http://apps1.eere.energy.gov/buildings/energyplus/weatherdata/4_north_and_central_america_wmo_region_4/1_usa/USA_WA_Wenatchee-Pangborn.Mem.AP.727825_TMY3.zip
RIYADH,-,SAU,IWEC Data,404380,24.7,46.8,3,612,http://apps1.eere.energy.gov/buildings/energyplus/weatherdata/2_asia_wmo_region_2/SAU_Riyadh.404380_IWEC.zip
METEHARA,-,ETH,SWERA,634530,8.83,39.78,3,1062,http://apps1.eere.energy.gov/buildings/energyplus/weatherdata/1_africa_wmo_region_1/ETH_Metehara.634530_SWERA.zip
Palm Springs Thermal Ap,CA,USA,TMY3,747187,33.63,-116.17,-8,-34,http://apps1.eere.energy.gov/buildings/energyplus/weatherdata/4_north_and_central_america_wmo_region_4/1_usa/USA_CA_Palm.Springs-Thermal.AP.747187_TMY3.zip
CASA_BLANCA,-,CUB,SWERA,783250,23.17,-82.35,-5,50,http://apps1.eere.energy.gov/buildings/energyplus/weatherdata/4_north_and_central_america_wmo_region_4/CUB_Casa.Blanca.783250_SWERA.zip
Wellington,Wellington,New Zealand,TMY2 NIWA 18234 D14482,934360,-41.41,174.87,12,79,http://apps1.eere.energy.gov/buildings/energyplus/weatherdata/5_southwest_pacific_wmo_region_5/NZL_Wellington-Wellington.WN.934360_NIWA.zip
Rome R B Russell Ap,GA,USA,TMY3,723200,34.35,-85.17,-5,195,http://apps1.eere.energy.gov/buildings/energyplus/weatherdata/4_north_and_central_america_wmo_region_4/1_usa/USA_GA_Rome-Richard.B.Russell.AP.723200_TMY3.zip
FLINT,MI,USA,TMY2-14826,726370,42.97,-83.73,-5,233,http://apps1.eere.energy.gov/buildings/energyplus/weatherdata/4_north_and_central_america_wmo_region_4/1_usa/USA_MI_Flint.726370_TMY2.zip
BINGHAMTON,NY,USA,TMY2-04725,725150,42.22,-75.98,-5,499,http://apps1.eere.energy.gov/buildings/energyplus/weatherdata/4_north_and_central_america_wmo_region_4/1_usa/USA_NY_Binghamton.725150_TMY2.zip
ATLANTIC_CITY,NJ,USA,TMY2-93730,724070,39.45,-74.57,-5,20,http://apps1.eere.energy.gov/buildings/energyplus/weatherdata/4_north_and_central_america_wmo_region_4/1_usa/USA_NJ_Atlantic.City.724070_TMY2.zip
Key West Intl Arpt,FL,USA,TMY3,722010,24.55,-81.75,-5,1,http://apps1.eere.energy.gov/buildings/energyplus/weatherdata/4_north_and_central_america_wmo_region_4/1_usa/USA_FL_Key.West.Intl.AP.722010_TMY3.zip
Miles City Municipal Arpt,MT,USA,TMY3,742300,46.43,-105.88,-7,801,http://apps1.eere.energy.gov/buildings/energyplus/weatherdata/4_north_and_central_america_wmo_region_4/1_usa/USA_MT_Miles.City.Muni.AP.742300_TMY3.zip
Medford Rogue Valley Intl Ap,OR,USA,TMY3,725970,42.19,-122.7,-8,595,http://apps1.eere.energy.gov/buildings/energyplus/weatherdata/4_north_and_central_america_wmo_region_4/1_usa/USA_OR_Medford-Rogue.Valley.Intl.AP.725970_TMY3.zip
Columbia Metro Arpt,SC,USA,TMY3,723100,33.95,-81.12,-5,65,http://apps1.eere.energy.gov/buildings/energyplus/weatherdata/4_north_and_central_america_wmo_region_4/1_usa/USA_SC_Columbia.Metro.AP.723100_TMY3.zip
Patna,Bihar,IND,ISHRAE,424920,25.27,85.17,5.5,53,http://apps1.eere.energy.gov/buildings/energyplus/weatherdata/2_asia_wmo_region_2/IND_Patna.424920_ISHRAE.zip
New River Mcaf,NC,USA,TMY3,723096,34.7,-77.38,-5,5,http://apps1.eere.energy.gov/buildings/energyplus/weatherdata/4_north_and_central_america_wmo_region_4/1_usa/USA_NC_New.River.MCAS.723096_TMY3.zip
BEIJING,-,CHN,IWEC Data,545110,39.8,116.47,8,32,http://apps1.eere.energy.gov/buildings/energyplus/weatherdata/2_asia_wmo_region_2/CHN_Beijing.Beijing.545110_IWEC.zip
Joslin Fld Magic Va  Twin Fall,ID,USA,TMY3,725866,42.55,-114.35,-7,1200,http://apps1.eere.energy.gov/buildings/energyplus/weatherdata/4_north_and_central_america_wmo_region_4/1_usa/USA_ID_Twin.Falls-Magic.Valley.Rgnl.AP-Joslin.Field.725866_TMY3.zip
Washington,IA,USA,TMY3,725454,41.28,-91.67,-6,230,http://apps1.eere.energy.gov/buildings/energyplus/weatherdata/4_north_and_central_america_wmo_region_4/1_usa/USA_IA_Washington.Muni.AP.725454_TMY3.zip
Xifengzhen,Gansu,CHN,CSWD,539230,35.73,107.63,8,1421,http://apps1.eere.energy.gov/buildings/energyplus/weatherdata/2_asia_wmo_region_2/CHN_Gansu.Xifengzhen.539230_CSWD.zip
Poznan,-,POL,IMGW,123300,52.42,16.97,1,0,http://apps1.eere.energy.gov/buildings/energyplus/weatherdata/6_europe_wmo_region_6/POL_Poznan.123300_IMGW.zip
Bagotville,PQ,CAN,WYEC2-B-94795,717270,48.33,-71,-5,159,http://apps1.eere.energy.gov/buildings/energyplus/weatherdata/4_north_and_central_america_wmo_region_4/3_canada/CAN_PQ_Bagotville.717270_CWEC.zip
KASHI,-,CHN,SWERA,517090,39.47,75.98,8,1291,http://apps1.eere.energy.gov/buildings/energyplus/weatherdata/2_asia_wmo_region_2/CHN_Kinjiang.Uygar.Kashi.517090_SWERA.zip
Whiting Field Naas,FL,USA,TMY3,722226,30.72,-87.02,-6,54,http://apps1.eere.energy.gov/buildings/energyplus/weatherdata/4_north_and_central_america_wmo_region_4/1_usa/USA_FL_Whiting.Field.NAS.722226_TMY3.zip
Roswell,NM,USA,TMY--23043,722680,33.3,-104.53,-7,1112,http://apps1.eere.energy.gov/buildings/energyplus/weatherdata/4_north_and_central_america_wmo_region_4/1_usa/USA_NM_Roswell.Industrial.Air.Park.722680_TMY.zip
Huimin Xian,Shandong,CHN,CSWD,547250,37.48,117.53,8,11.7,http://apps1.eere.energy.gov/buildings/energyplus/weatherdata/2_asia_wmo_region_2/CHN_Shandong.Huimin.Xian.547250_CSWD.zip
Garze,-,CHN,SWERA,561460,31.62,100,8,3394,http://apps1.eere.energy.gov/buildings/energyplus/weatherdata/2_asia_wmo_region_2/CHN_Sichuan.Garze.561460_SWERA.zip
Visalia Muni  Awos,CA,USA,TMY3,723896,36.32,-119.4,-8,89,http://apps1.eere.energy.gov/buildings/energyplus/weatherdata/4_north_and_central_america_wmo_region_4/1_usa/USA_CA_Visalia.Muni.AWOS.723896_TMY3.zip
CLEVELAND,OH,USA,TMY2-14820,725240,41.4,-81.85,-5,245,http://apps1.eere.energy.gov/buildings/energyplus/weatherdata/4_north_and_central_america_wmo_region_4/1_usa/USA_OH_Cleveland.725240_TMY2.zip
Yuncheng,Shanxi,CHN,CSWD,539590,35.05,111.05,8,365,http://apps1.eere.energy.gov/buildings/energyplus/weatherdata/2_asia_wmo_region_2/CHN_Shanxi.Yuncheng.539590_CSWD.zip
Abilene Regional Ap  Ut,TX,USA,TMY3,722660,32.47,-99.71,-6,530,http://apps1.eere.energy.gov/buildings/energyplus/weatherdata/4_north_and_central_america_wmo_region_4/1_usa/USA_TX_Abilene.Rgnl.AP.722660_TMY3.zip
Mobile Downtown Ap,AL,USA,TMY3,722235,30.63,-88.07,-6,8,http://apps1.eere.energy.gov/buildings/energyplus/weatherdata/4_north_and_central_america_wmo_region_4/1_usa/USA_AL_Mobile-Downtown.AP.722235_TMY3.zip
Houston Ellington Afb  Clear L,TX,USA,TMY3,722436,29.57,-95.09,-6,6,http://apps1.eere.energy.gov/buildings/energyplus/weatherdata/4_north_and_central_america_wmo_region_4/1_usa/USA_TX_Houston-Ellington.AFB.722436_TMY3.zip
HANGZHOU/JIANQIAO,-,CHN,SWERA,584570,30.23,120.17,8,43,http://apps1.eere.energy.gov/buildings/energyplus/weatherdata/2_asia_wmo_region_2/CHN_Zhejiang.Hangzhou.584570_SWERA.zip
Lubbock/Int'l Arpt,TX,USA,TMY--23042,722670,33.65,-101.82,-6,988,http://apps1.eere.energy.gov/buildings/energyplus/weatherdata/4_north_and_central_america_wmo_region_4/1_usa/USA_TX_Lubbock.Intl.AP.722670_TMY.zip
Sheldon,IA,USA,TMY3,725495,43.22,-95.83,-6,432,http://apps1.eere.energy.gov/buildings/energyplus/weatherdata/4_north_and_central_america_wmo_region_4/1_usa/USA_IA_Sheldon.Muni.AP.725495_TMY3.zip
BATANG,-,CHN,SWERA,562470,30,99.1,8,2589,http://apps1.eere.energy.gov/buildings/energyplus/weatherdata/2_asia_wmo_region_2/CHN_Sichuan.Batang.562470_SWERA.zip
North Myrtle Beach Grand Stra,SC,USA,TMY3,747915,33.82,-78.72,-5,10,http://apps1.eere.energy.gov/buildings/energyplus/weatherdata/4_north_and_central_america_wmo_region_4/1_usa/USA_SC_North.Myrtle.Beach-Grand.Strand.Field.747915_TMY3.zip
Queenstown,Lakes,New Zealand,TMY2 NIWA 5451 I58075,938310,-45.02,168.74,12,354,http://apps1.eere.energy.gov/buildings/energyplus/weatherdata/5_southwest_pacific_wmo_region_5/NZL_Queenstown.Lakes-Queenstown.QL.938310_NIWA.zip
Haliut,Nei Mongol,CHN,CSWD,533360,41.57,108.52,8,1288,http://apps1.eere.energy.gov/buildings/energyplus/weatherdata/2_asia_wmo_region_2/CHN_Nei.Mongol.Haliut.533360_CSWD.zip
McGrath,AK,USA,TMY--26510,702310,62.97,-155.62,-9,103,http://apps1.eere.energy.gov/buildings/energyplus/weatherdata/4_north_and_central_america_wmo_region_4/1_usa/USA_AK_McGrath.AP.702310_TMY.zip
Lugo,-,ESP,SWEC,80080,43.25,-7.48,1,259,http://apps1.eere.energy.gov/buildings/energyplus/weatherdata/6_europe_wmo_region_6/ESP_Lugo.080080_SWEC.zip
BRATISLAVA,-,SVK,IWEC Data,118160,48.2,17.2,1,130,http://apps1.eere.energy.gov/buildings/energyplus/weatherdata/6_europe_wmo_region_6/SVK_Bratislava.118160_IWEC.zip
Meridian Key Field,MS,USA,TMY3,722340,32.33,-88.75,-6,90,http://apps1.eere.energy.gov/buildings/energyplus/weatherdata/4_north_and_central_america_wmo_region_4/1_usa/USA_MS_Meridian-Key.Field.722340_TMY3.zip
LA PAZ,-,BOL,IWEC Data,852010,-16.52,-68.18,-4,4042,http://apps1.eere.energy.gov/buildings/energyplus/weatherdata/3_south_america_wmo_region_3/BOL_La.Paz.852010_IWEC.zip
Harbin,Heilongjiang,CHN,CSWD,509530,45.75,126.77,8,142.3,http://apps1.eere.energy.gov/buildings/energyplus/weatherdata/2_asia_wmo_region_2/CHN_Heilongjiang.Harbin.509530_CSWD.zip
Chitradurg,Karnataka,IND,ISHRAE,432330,14.13,76.27,5.5,733,http://apps1.eere.energy.gov/buildings/energyplus/weatherdata/2_asia_wmo_region_2/IND_Chirtadurg.432330_ISHRAE.zip
Devils Lake Awos,ND,USA,TMY3,727573,48.12,-98.92,-6,443,http://apps1.eere.energy.gov/buildings/energyplus/weatherdata/4_north_and_central_america_wmo_region_4/1_usa/USA_ND_Devils.Lake.AWOS.727573_TMY3.zip
Anchorage Merrill Field,AK,USA,TMY3,702735,61.22,-149.85,-9,42,http://apps1.eere.energy.gov/buildings/energyplus/weatherdata/4_north_and_central_america_wmo_region_4/1_usa/USA_AK_Anchorage-Merrill.Field.702735_TMY3.zip
Cold Bay Arpt,AK,USA,TMY3,703160,55.2,-162.72,-9,29,http://apps1.eere.energy.gov/buildings/energyplus/weatherdata/4_north_and_central_america_wmo_region_4/1_usa/USA_AK_Cold.Bay.AP.703160_TMY3.zip
Hanford,WA,USA,TMY3,727840,46.57,-119.6,-8,223,http://apps1.eere.energy.gov/buildings/energyplus/weatherdata/4_north_and_central_america_wmo_region_4/1_usa/USA_WA_Hanford.727840_TMY3.zip
GARISSA,-,KEN,SWERA,637230,-0.47,39.63,3,147,http://apps1.eere.energy.gov/buildings/energyplus/weatherdata/1_africa_wmo_region_1/KEN_Garissa.637230_SWERA.zip
KOLOBRZEG,-,POL,IWEC Data,121000,54.18,15.58,1,5,http://apps1.eere.energy.gov/buildings/energyplus/weatherdata/6_europe_wmo_region_6/POL_Kolobrzeg.121000_IWEC.zip
New Delhi,Delhi,IND,ISHRAE,421820,28.58,77.2,5.5,216,http://apps1.eere.energy.gov/buildings/energyplus/weatherdata/2_asia_wmo_region_2/IND_New.Delhi.421820_ISHRAE.zip
SEVILLA,-,ESP,IWEC Data,83910,37.42,-5.9,1,31,http://apps1.eere.energy.gov/buildings/energyplus/weatherdata/6_europe_wmo_region_6/ESP_Sevilla.083910_IWEC.zip
Brunswick Malcolm Mckinnon Ap,GA,USA,TMY3,722137,31.15,-81.38,-5,4,http://apps1.eere.energy.gov/buildings/energyplus/weatherdata/4_north_and_central_america_wmo_region_4/1_usa/USA_GA_Brunswick-Malcolm.McKinnon.AP.722137_TMY3.zip
Benxi,Liaoning,CHN,CSWD,543460,41.32,123.78,8,185.4,http://apps1.eere.energy.gov/buildings/energyplus/weatherdata/2_asia_wmo_region_2/CHN_Liaoning.Benxi.543460_CSWD.zip
Wrangell,AK,USA,TMY3,703870,56.48,-132.37,-9,13,http://apps1.eere.energy.gov/buildings/energyplus/weatherdata/4_north_and_central_america_wmo_region_4/1_usa/USA_AK_Wrangell.703870_TMY3.zip
Chifeng,Nei Mongol,CHN,CSWD,542180,42.27,118.93,8,568,http://apps1.eere.energy.gov/buildings/energyplus/weatherdata/2_asia_wmo_region_2/CHN_Nei.Mongol.Chifeng.542180_CSWD.zip
Hooper Bay,AK,USA,TMY3,702186,61.52,-166.15,-9,6,http://apps1.eere.energy.gov/buildings/energyplus/weatherdata/4_north_and_central_america_wmo_region_4/1_usa/USA_AK_Hooper.Bay.702186_TMY3.zip
Chengshantou,Shandong,CHN,CSWD,547760,37.4,122.68,8,47.7,http://apps1.eere.energy.gov/buildings/energyplus/weatherdata/2_asia_wmo_region_2/CHN_Shandong.Chengshantou.547760_CSWD.zip
Kaitaia,Northland,New Zealand,TMY2 NIWA 1041 A53125,930120,-35.13,173.26,12,85,http://apps1.eere.energy.gov/buildings/energyplus/weatherdata/5_southwest_pacific_wmo_region_5/NZL_Northland-Kaitaia.NL.930120_NIWA.zip
Youngstown Regional Airport,OH,USA,TMY3,725250,41.25,-80.67,-5,360,http://apps1.eere.energy.gov/buildings/energyplus/weatherdata/4_north_and_central_america_wmo_region_4/1_usa/USA_OH_Youngstown.Rgnl.AP.725250_TMY3.zip
Morgantown Hart Field,WV,USA,TMY3,724176,39.65,-79.92,-5,378,http://apps1.eere.energy.gov/buildings/energyplus/weatherdata/4_north_and_central_america_wmo_region_4/1_usa/USA_WV_Morgantown.Muni-Hart.Field.724176_TMY3.zip
Fengning,Hebei,CHN,CSWD,543080,41.22,116.63,8,661.2,http://apps1.eere.energy.gov/buildings/energyplus/weatherdata/2_asia_wmo_region_2/CHN_Hebei.Fengning.543080_CSWD.zip
Thief River Awos,MN,USA,TMY3,727555,48.07,-96.18,-6,340,http://apps1.eere.energy.gov/buildings/energyplus/weatherdata/4_north_and_central_america_wmo_region_4/1_usa/USA_MN_Thief.River.AWOS.727555_TMY3.zip
Abag Qi Hot,Nei Mongol,CHN,CSWD,531920,44.02,114.95,8,1126.1,http://apps1.eere.energy.gov/buildings/energyplus/weatherdata/2_asia_wmo_region_2/CHN_Nei.Mongol.Abag.Qi.Hot.531920_CSWD.zip
POZNAN,-,POL,IWEC Data,123300,52.42,16.83,1,92,http://apps1.eere.energy.gov/buildings/energyplus/weatherdata/6_europe_wmo_region_6/POL_Poznan.123300_IWEC.zip
Gorzow Wlkp,-,POL,IMGW,123000,52.73,15.23,1,0,http://apps1.eere.energy.gov/buildings/energyplus/weatherdata/6_europe_wmo_region_6/POL_Gorzow.Wlkp.123000_IMGW.zip
GOODLAND,KS,USA,TMY2-23065,724650,39.37,-101.7,-7,1124,http://apps1.eere.energy.gov/buildings/energyplus/weatherdata/4_north_and_central_america_wmo_region_4/1_usa/USA_KS_Goodland.724650_TMY2.zip
Beijing,Beijing,CHN,CSWD,545110,39.8,116.47,8,31.3,http://apps1.eere.energy.gov/buildings/energyplus/weatherdata/2_asia_wmo_region_2/CHN_Beijing.Beijing.545110_CSWD.zip
Bielsko Biala,-,POL,IMGW,126000,49.67,19.25,1,399,http://apps1.eere.energy.gov/buildings/energyplus/weatherdata/6_europe_wmo_region_6/POL_Bielsko.Biala.126000_IMGW.zip
CONSTANTA,-,ROM,IWEC Data,154800,44.22,28.63,2,14,http://apps1.eere.energy.gov/buildings/energyplus/weatherdata/6_europe_wmo_region_6/ROU_Constanta.154800_IWEC.zip
Hutchinson Municipal Ap,KS,USA,TMY3,724506,38.07,-97.87,-6,463,http://apps1.eere.energy.gov/buildings/energyplus/weatherdata/4_north_and_central_america_wmo_region_4/1_usa/USA_KS_Hutchinson.Muni.AP.724506_TMY3.zip
SPRINGFIELD,MO,USA,TMY2-13995,724400,37.23,-93.38,-6,387,http://apps1.eere.energy.gov/buildings/energyplus/weatherdata/4_north_and_central_america_wmo_region_4/1_usa/USA_MO_Springfield.724400_TMY2.zip
San Remo,-,ITA,IGDG,161530,43.95,8.17,1,221,http://apps1.eere.energy.gov/buildings/energyplus/weatherdata/6_europe_wmo_region_6/ITA_San.Remo.161530_IGDG.zip
Santa Maria Public Arpt,CA,USA,TMY3,723940,34.92,-120.47,-8,77,http://apps1.eere.energy.gov/buildings/energyplus/weatherdata/4_north_and_central_america_wmo_region_4/1_usa/USA_CA_Santa.Maria.Public.AP.723940_TMY3.zip
Dayton International Airport,OH,USA,TMY3,724290,39.9,-84.22,-5,305,http://apps1.eere.energy.gov/buildings/energyplus/weatherdata/4_north_and_central_america_wmo_region_4/1_usa/USA_OH_Dayton.Intl.AP.724290_TMY3.zip
Fort Smith Regional Ap,AR,USA,TMY3,723440,35.33,-94.37,-6,137,http://apps1.eere.energy.gov/buildings/energyplus/weatherdata/4_north_and_central_america_wmo_region_4/1_usa/USA_AR_Fort.Smith.Rgnl.AP.723440_TMY3.zip
NEWARK,NJ,USA,TMY2-14734,725020,40.7,-74.17,-5,9,http://apps1.eere.energy.gov/buildings/energyplus/weatherdata/4_north_and_central_america_wmo_region_4/1_usa/USA_NJ_Newark.725020_TMY2.zip
Memphis,TN,USA,TMY--13893,723340,35.05,-90,-6,87,http://apps1.eere.energy.gov/buildings/energyplus/weatherdata/4_north_and_central_america_wmo_region_4/1_usa/USA_TN_Memphis.Intl.AP.723340_TMY.zip
Sata Fe County Municipal Ap,NM,USA,TMY3,723656,35.62,-106.08,-7,1934,http://apps1.eere.energy.gov/buildings/energyplus/weatherdata/4_north_and_central_america_wmo_region_4/1_usa/USA_NM_Santa.Fe.County.Muni.AP.723656_TMY3.zip
Enna,-,ITA,IGDG,164500,37.57,14.28,1,965,http://apps1.eere.energy.gov/buildings/energyplus/weatherdata/6_europe_wmo_region_6/ITA_Enna.164500_IGDG.zip
Lancaster Gen Wm Fox Field,CA,USA,TMY3,723816,34.73,-118.22,-8,713,http://apps1.eere.energy.gov/buildings/energyplus/weatherdata/4_north_and_central_america_wmo_region_4/1_usa/USA_CA_Lancaster-Gen.Wm.Fox.Field.723816_TMY3.zip
Moab Canyonlands  Uo,UT,USA,TMY3,724776,38.58,-109.54,-7,1000,http://apps1.eere.energy.gov/buildings/energyplus/weatherdata/4_north_and_central_america_wmo_region_4/1_usa/USA_UT_Moab-Canyonlands.Field.724776_TMY3.zip
Eau Claire,WI,USA,TMY--14991,726435,44.87,-91.48,-6,276,http://apps1.eere.energy.gov/buildings/energyplus/weatherdata/4_north_and_central_america_wmo_region_4/1_usa/USA_WI_Eau.Claire.County.AP.726435_TMY.zip
Hoonah,AK,USA,TMY3,702607,58.08,-135.45,-9,6,http://apps1.eere.energy.gov/buildings/energyplus/weatherdata/4_north_and_central_america_wmo_region_4/1_usa/USA_AK_Hoonah.702607_TMY3.zip
Mcconnell Afb,KS,USA,TMY3,724505,37.62,-97.27,-6,414,http://apps1.eere.energy.gov/buildings/energyplus/weatherdata/4_north_and_central_america_wmo_region_4/1_usa/USA_KS_Wichita-McConnell.AFB.724505_TMY3.zip
Kingston,ON,CAN,WYEC2-B-CAN15,718200,44.22,-76.6,-5,93,http://apps1.eere.energy.gov/buildings/energyplus/weatherdata/4_north_and_central_america_wmo_region_4/3_canada/CAN_ON_Kingston.716200_CWEC.zip
Hondo Municipal Ap,TX,USA,TMY3,722533,29.37,-99.17,-6,280,http://apps1.eere.energy.gov/buildings/energyplus/weatherdata/4_north_and_central_america_wmo_region_4/1_usa/USA_TX_Hondo.Muni.AP.722533_TMY3.zip
Los.Alamos,NM,USA,TMY2-23654,723654,35.88,-106.28,-7,2179,http://apps1.eere.energy.gov/buildings/energyplus/weatherdata/4_north_and_central_america_wmo_region_4/1_usa/USA_NM_Los.Alamos.723654_TMY2.zip
ULAANGOM,-,MNG,IWEC Data,442120,49.88,92.08,8,936,http://apps1.eere.energy.gov/buildings/energyplus/weatherdata/2_asia_wmo_region_2/MNG_Ulaangom.442120_IWEC.zip
Ceduna,SA,AUS,RMY,946530,-32.13,133.7,9.5,16,http://apps1.eere.energy.gov/buildings/energyplus/weatherdata/5_southwest_pacific_wmo_region_5/AUS_SA.Ceduna.946530_RMY.zip
San Sebastian,-,ESP,SWEC,80270,43.3,-2.05,1,259,http://apps1.eere.energy.gov/buildings/energyplus/weatherdata/6_europe_wmo_region_6/ESP_San.Sebastian.080270_SWEC.zip
Low Head,TAS,AUS,RMY,959640,-41.05,146.78,10,4,http://apps1.eere.energy.gov/buildings/energyplus/weatherdata/5_southwest_pacific_wmo_region_5/AUS_TAS.Low.Head.959640_RMY.zip
Sydney,NSW,AUS,RMY,947680,-33.85,151.2,10,40,http://apps1.eere.energy.gov/buildings/energyplus/weatherdata/5_southwest_pacific_wmo_region_5/AUS_NSW.Sydney.947680_RMY.zip
Yakutat,AK,USA,TMY--25339,703610,59.52,-139.67,-9,9,http://apps1.eere.energy.gov/buildings/energyplus/weatherdata/4_north_and_central_america_wmo_region_4/1_usa/USA_AK_Yakutat.State.AP.703610_TMY.zip
New York Laguardia Arpt,NY,USA,TMY3,725030,40.78,-73.88,-5,3,http://apps1.eere.energy.gov/buildings/energyplus/weatherdata/4_north_and_central_america_wmo_region_4/1_usa/USA_NY_New.York-LaGuardia.AP.725030_TMY3.zip
Battle Creek Kellogg Ap,MI,USA,TMY3,725396,42.3,-85.25,-5,283,http://apps1.eere.energy.gov/buildings/energyplus/weatherdata/4_north_and_central_america_wmo_region_4/1_usa/USA_MI_Battle.Creek-Kellogg.AP.725396_TMY3.zip
Medicine Hat,AB,CAN,WYEC2-B-25118,718720,50.02,-110.72,-7,716,http://apps1.eere.energy.gov/buildings/energyplus/weatherdata/4_north_and_central_america_wmo_region_4/3_canada/CAN_AB_Medicine.Hat.718720_CWEC.zip
Bozeman Gallatin Field,MT,USA,TMY3,726797,45.8,-111.15,-7,1349,http://apps1.eere.energy.gov/buildings/energyplus/weatherdata/4_north_and_central_america_wmo_region_4/1_usa/USA_MT_Bozeman-Gallatin.Field.726797_TMY3.zip
Deming Muni,NM,USA,TMY3,722725,32.25,-107.72,-7,1348,http://apps1.eere.energy.gov/buildings/energyplus/weatherdata/4_north_and_central_america_wmo_region_4/1_usa/USA_NM_Deming.Muni.AP.722725_TMY3.zip
Mora Muni  Awos,MN,USA,TMY3,727475,45.88,-93.27,-6,309,http://apps1.eere.energy.gov/buildings/energyplus/weatherdata/4_north_and_central_america_wmo_region_4/1_usa/USA_MN_Mora.Muni.AWOS.727475_TMY3.zip
Dallas Fort Worth Intl Ap,TX,USA,TMY3,722590,32.9,-97.02,-6,171,http://apps1.eere.energy.gov/buildings/energyplus/weatherdata/4_north_and_central_america_wmo_region_4/1_usa/USA_TX_Dallas-Fort.Worth.Intl.AP.722590_TMY3.zip
MADRID,-,ESP,IWEC Data,82210,40.45,-3.55,1,582,http://apps1.eere.energy.gov/buildings/energyplus/weatherdata/6_europe_wmo_region_6/ESP_Madrid.082210_IWEC.zip
SALEM,OR,USA,TMY2-24232,726940,44.92,-123.02,-8,61,http://apps1.eere.energy.gov/buildings/energyplus/weatherdata/4_north_and_central_america_wmo_region_4/1_usa/USA_OR_Salem.726940_TMY2.zip
Manzhouli,Nei Mongol,CHN,CSWD,505140,49.57,117.43,8,661.7,http://apps1.eere.energy.gov/buildings/energyplus/weatherdata/2_asia_wmo_region_2/CHN_Nei.Mongol.Manzhouli.505140_CSWD.zip
LITTLE_ROCK,AR,USA,TMY2-13963,723405,34.73,-92.23,-6,81,http://apps1.eere.energy.gov/buildings/energyplus/weatherdata/4_north_and_central_america_wmo_region_4/1_usa/USA_AR_Little.Rock.723405_TMY2.zip
Solon,Nei Mongol,CHN,CSWD,508340,46.6,121.22,8,499.7,http://apps1.eere.energy.gov/buildings/energyplus/weatherdata/2_asia_wmo_region_2/CHN_Nei.Mongol.Solon.508340_CSWD.zip
Huron Regional Arpt,SD,USA,TMY3,726540,44.4,-98.22,-6,390,http://apps1.eere.energy.gov/buildings/energyplus/weatherdata/4_north_and_central_america_wmo_region_4/1_usa/USA_SD_Huron.Rgnl.AP.726540_TMY3.zip
KWANGJU,-,KOR,IWEC Data,471560,35.13,126.92,9,72,http://apps1.eere.energy.gov/buildings/energyplus/weatherdata/2_asia_wmo_region_2/KOR_Kwangju.471560_IWEC.zip
Jian,Jiangxi,CHN,CSWD,577990,27.05,114.92,8,71.2,http://apps1.eere.energy.gov/buildings/energyplus/weatherdata/2_asia_wmo_region_2/CHN_Jiangxi.Jian.577990_CSWD.zip
POCATELLO,ID,USA,TMY2-24156,725780,42.92,-112.6,-7,1365,http://apps1.eere.energy.gov/buildings/energyplus/weatherdata/4_north_and_central_america_wmo_region_4/1_usa/USA_ID_Pocatello.725780_TMY2.zip
Glasgow,MT,USA,TMY--94008,727680,48.22,-106.62,-7,700,http://apps1.eere.energy.gov/buildings/energyplus/weatherdata/4_north_and_central_america_wmo_region_4/1_usa/USA_MT_Glasgow.Intl.AP.727680_TMY.zip
Sioux Falls,SD,USA,TMY--14944,726510,43.58,-96.73,-6,435,http://apps1.eere.energy.gov/buildings/energyplus/weatherdata/4_north_and_central_america_wmo_region_4/1_usa/USA_SD_Sioux.Falls-Foss.Field.726510_TMY.zip
Broken Bow Muni,NE,USA,TMY3,725555,41.43,-99.65,-6,776,http://apps1.eere.energy.gov/buildings/energyplus/weatherdata/4_north_and_central_america_wmo_region_4/1_usa/USA_NE_Broken.Bow.Muni.AP.725555_TMY3.zip
LJUBLJANA,-,SVN,IWEC Data,130140,46.22,14.48,1,385,http://apps1.eere.energy.gov/buildings/energyplus/weatherdata/6_europe_wmo_region_6/SVN_Ljubljana.130140_IWEC.zip
Eugenio Maria De Ho,PR,PRI,TMY3,785145,18.25,-67.15,-4,9,http://apps1.eere.energy.gov/buildings/energyplus/weatherdata/4_north_and_central_america_wmo_region_4/PRI_Mayaguez-Eugenio.Maria.de.Hostos.AP.785145_TMY3.zip
MANSFIELD,OH,USA,TMY2-14891,725246,40.82,-82.52,-5,395,http://apps1.eere.energy.gov/buildings/energyplus/weatherdata/4_north_and_central_america_wmo_region_4/1_usa/USA_OH_Mansfield.725246_TMY2.zip
Naval Air Station,ME,USA,TMY3,743920,43.9,-69.93,-5,21,http://apps1.eere.energy.gov/buildings/energyplus/weatherdata/4_north_and_central_america_wmo_region_4/1_usa/USA_ME_Brunswick.NAS.743920_TMY3.zip
Mekoryuk,AK,USA,TMY3,702185,60.37,-166.27,-9,15,http://apps1.eere.energy.gov/buildings/energyplus/weatherdata/4_north_and_central_america_wmo_region_4/1_usa/USA_AK_Mekoryuk.702185_TMY3.zip
MASON_CITY,IA,USA,TMY2-14940,725485,43.15,-93.33,-6,373,http://apps1.eere.energy.gov/buildings/energyplus/weatherdata/4_north_and_central_america_wmo_region_4/1_usa/USA_IA_Mason.City.725485_TMY2.zip
Kurnool,Andhra Pradesh,IND,ISHRAE,432130,15.5,78.03,5.5,281,http://apps1.eere.energy.gov/buildings/energyplus/weatherdata/2_asia_wmo_region_2/IND_Kurnool.432130_ISHRAE.zip
Kodiak/State USCG Base,AK,USA,TMY--25501,703500,57.75,-152.5,-9,34,http://apps1.eere.energy.gov/buildings/energyplus/weatherdata/4_north_and_central_america_wmo_region_4/1_usa/USA_AK_Kodiak.AP.703500_TMY.zip
Youyang,Chongqing,CHN,CSWD,576330,28.83,108.77,8,664.1,http://apps1.eere.energy.gov/buildings/energyplus/weatherdata/2_asia_wmo_region_2/CHN_Chongqing.Youyang.576330_CSWD.zip
Midland International Ap,TX,USA,TMY3,722650,31.95,-102.18,-6,872,http://apps1.eere.energy.gov/buildings/energyplus/weatherdata/4_north_and_central_america_wmo_region_4/1_usa/USA_TX_Midland.Intl.AP.722650_TMY3.zip
FORT_WAYNE,IN,USA,TMY2-14827,725330,41,-85.2,-5,252,http://apps1.eere.energy.gov/buildings/energyplus/weatherdata/4_north_and_central_america_wmo_region_4/1_usa/USA_IN_Fort.Wayne.725330_TMY2.zip
Harrisburg,PA,USA,TMY--14751,725118,40.2,-76.77,-5,94,http://apps1.eere.energy.gov/buildings/energyplus/weatherdata/4_north_and_central_america_wmo_region_4/1_usa/USA_PA_Harrisburg-Capital.City.AP.725118_TMY.zip
AREQUIPA,-,PER,IWEC Data,847520,-16.32,-71.55,-5,2520,http://apps1.eere.energy.gov/buildings/energyplus/weatherdata/3_south_america_wmo_region_3/PER_Arequipa.847520_IWEC.zip
Charlotte,NC,USA,TMY--13881,723140,35.22,-80.93,-5,234,http://apps1.eere.energy.gov/buildings/energyplus/weatherdata/4_north_and_central_america_wmo_region_4/1_usa/USA_NC_Charlotte-Douglas.Intl.AP.723140_TMY.zip
Southwest Florida I,FL,USA,TMY3,722108,26.53,-81.75,-5,9,http://apps1.eere.energy.gov/buildings/energyplus/weatherdata/4_north_and_central_america_wmo_region_4/1_usa/USA_FL_Southwest.Florida.Intl.AP.722108_TMY3.zip
Nashville International Ap,TN,USA,TMY3,723270,36.12,-86.68,-6,177,http://apps1.eere.energy.gov/buildings/energyplus/weatherdata/4_north_and_central_america_wmo_region_4/1_usa/USA_TN_Nashville.Intl.AP.723270_TMY3.zip
BUFFALO,NY,USA,TMY2-14733,725280,42.93,-78.73,-5,215,http://apps1.eere.energy.gov/buildings/energyplus/weatherdata/4_north_and_central_america_wmo_region_4/1_usa/USA_NY_Buffalo.725280_TMY2.zip
Suichuan,Jiangxi,CHN,CSWD,578960,26.33,114.5,8,126.1,http://apps1.eere.energy.gov/buildings/energyplus/weatherdata/2_asia_wmo_region_2/CHN_Jiangxi.Suichuan.578960_CSWD.zip
Bryce Canyon,UT,USA,TMY--23159,724756,37.7,-112.15,-7,2312,http://apps1.eere.energy.gov/buildings/energyplus/weatherdata/4_north_and_central_america_wmo_region_4/1_usa/USA_UT_Bryce.Canyon.AP.724756_TMY.zip
Gage Airport,OK,USA,TMY3,723527,36.3,-99.77,-6,668,http://apps1.eere.energy.gov/buildings/energyplus/weatherdata/4_north_and_central_america_wmo_region_4/1_usa/USA_OK_Gage.AP.723527_TMY3.zip
BIRR,-,IRL,IWEC Data,39650,53.08,-7.88,0,72,http://apps1.eere.energy.gov/buildings/energyplus/weatherdata/6_europe_wmo_region_6/IRL_Birr.039650_IWEC.zip
Ketrzyn,-,POL,IMGW,121850,54.08,21.38,1,110,http://apps1.eere.energy.gov/buildings/energyplus/weatherdata/6_europe_wmo_region_6/POL_Ketrzyn.121850_IMGW.zip
Yining,Xinjiang Uygur,CHN,CSWD,514310,43.95,81.33,8,662.5,http://apps1.eere.energy.gov/buildings/energyplus/weatherdata/2_asia_wmo_region_2/CHN_Xinjiang.Uygur.Yining.514310_CSWD.zip
Juxian,Shandong,CHN,CSWD,549360,35.58,118.83,8,107.4,http://apps1.eere.energy.gov/buildings/energyplus/weatherdata/2_asia_wmo_region_2/CHN_Shandong.Juxian.549360_CSWD.zip
KAHULUI,HI,USA,TMY2-22516,911900,20.9,-156.43,-10,15,http://apps1.eere.energy.gov/buildings/energyplus/weatherdata/4_north_and_central_america_wmo_region_4/1_usa/USA_HI_Kahului.911900_TMY2.zip
Dunedin,Otago,New Zealand,TMY2 NIWA 15752 I50954,938910,-45.9,170.51,12,2,http://apps1.eere.energy.gov/buildings/energyplus/weatherdata/5_southwest_pacific_wmo_region_5/NZL_Otago-Dunedin.DN.938910_NIWA.zip
ELDORET,-,KEN,SWERA,636860,0.53,35.28,3,2133,http://apps1.eere.energy.gov/buildings/energyplus/weatherdata/1_africa_wmo_region_1/KEN_Eldoret.636860_SWERA.zip
Jackson Julian Carroll Ap,KY,USA,TMY3,724236,37.58,-83.32,-5,416,http://apps1.eere.energy.gov/buildings/energyplus/weatherdata/4_north_and_central_america_wmo_region_4/1_usa/USA_KY_Jackson-Julian.Carroll.AP.724236_TMY3.zip
TOKYO HYAKURI,-,JPN,IWEC Data,477150,36.18,140.42,9,35,http://apps1.eere.energy.gov/buildings/energyplus/weatherdata/2_asia_wmo_region_2/JPN_Tokyo.Hyakuri.477150_IWEC.zip
HONG KONG,SAR,CHN,CityUHK-45007,450070,22.32,114.17,8,65,http://apps1.eere.energy.gov/buildings/energyplus/weatherdata/2_asia_wmo_region_2/CHN_Hong.Kong.SAR.450070_CityUHK.zip
Philadelphia/Willow Gr,PA,USA,TMY--13739,724080,40.2,-75.15,-5,110,http://apps1.eere.energy.gov/buildings/energyplus/weatherdata/4_north_and_central_america_wmo_region_4/1_usa/USA_PA_Philadelphia.Intl.AP.724080_TMY.zip
Aquadilla Borinquen,PR,PRI,TMY3,785140,18.5,-67.13,-4,72,http://apps1.eere.energy.gov/buildings/energyplus/weatherdata/4_north_and_central_america_wmo_region_4/PRI_Aguadilla-Borinquen.AP.785140_TMY3.zip
Vancouver Int'l,BC,CAN,WYEC2-B-94238,718920,49.18,-123.17,-8,2,http://apps1.eere.energy.gov/buildings/energyplus/weatherdata/4_north_and_central_america_wmo_region_4/3_canada/CAN_BC_Vancouver.718920_CWEC.zip
Panjim,Goa,IND,ISHRAE,431920,15.48,73.82,5.5,60,http://apps1.eere.energy.gov/buildings/energyplus/weatherdata/2_asia_wmo_region_2/IND_Panjim.431920_ISHRAE.zip
Ottumwa Industrial Ap,IA,USA,TMY3,725465,41.1,-92.45,-6,257,http://apps1.eere.energy.gov/buildings/energyplus/weatherdata/4_north_and_central_america_wmo_region_4/1_usa/USA_IA_Ottumwa.Industrial.AP.725465_TMY3.zip
Augusta Bush Field,GA,USA,TMY3,722180,33.37,-81.97,-5,40,http://apps1.eere.energy.gov/buildings/energyplus/weatherdata/4_north_and_central_america_wmo_region_4/1_usa/USA_GA_Augusta-Bush-Field.722180_TMY3.zip
COLOMBO/RATMALANA,-,LKA,SWERA,434670,6.82,79.88,6,5,http://apps1.eere.energy.gov/buildings/energyplus/weatherdata/2_asia_wmo_region_2/LKA_Colombo-Ratmalana.434670_SWERA.zip
Farmington,MO,USA,TMY3,724454,37.77,-90.4,-6,274,http://apps1.eere.energy.gov/buildings/energyplus/weatherdata/4_north_and_central_america_wmo_region_4/1_usa/USA_MO_Farmington.Rgnl.AP.724454_TMY3.zip
BAOJI,-,CHN,SWERA,570160,34.35,107.13,8,610,http://apps1.eere.energy.gov/buildings/energyplus/weatherdata/2_asia_wmo_region_2/CHN_Shaanxi.Baoji.570160_SWERA.zip
Oakey Aero,QLD,AUS,RMY,945520,-27.42,151.73,10,407,http://apps1.eere.energy.gov/buildings/energyplus/weatherdata/5_southwest_pacific_wmo_region_5/AUS_QLD.Oakey.Aero.945520_RMY.zip
Kearney Muni  Awos,NE,USA,TMY3,725526,40.73,-99,-6,649,http://apps1.eere.energy.gov/buildings/energyplus/weatherdata/4_north_and_central_america_wmo_region_4/1_usa/USA_NE_Kearney.Muni.AWOS.725526_TMY3.zip
LA_FE,-,CUB,SWERA,783210,21.73,-82.77,-5,32,http://apps1.eere.energy.gov/buildings/energyplus/weatherdata/4_north_and_central_america_wmo_region_4/CUB_La.Fe.783210_SWERA.zip
Las Palmas,-,ESP,SWEC,600300,27.93,-15.38,1,25,http://apps1.eere.energy.gov/buildings/energyplus/weatherdata/6_europe_wmo_region_6/ESP_Las.Palmas.600300_SWEC.zip
Montpelier Ap,VT,USA,TMY3,726145,44.2,-72.57,-5,343,http://apps1.eere.energy.gov/buildings/energyplus/weatherdata/4_north_and_central_america_wmo_region_4/1_usa/USA_VT_Montpelier.AP.726145_TMY3.zip
SEATTLE,WA,USA,TMY2-24233,727930,47.45,-122.3,-8,122,http://apps1.eere.energy.gov/buildings/energyplus/weatherdata/4_north_and_central_america_wmo_region_4/1_usa/USA_WA_Seattle-Tacoma.727930_TMY2.zip
Chula Vista Brown Field Naas,CA,USA,TMY3,722904,32.58,-116.98,-8,159,http://apps1.eere.energy.gov/buildings/energyplus/weatherdata/4_north_and_central_america_wmo_region_4/1_usa/USA_CA_Chula.Vista-Brown.Field.Muni.AP.722904_TMY3.zip
PORT HEDLAND,-,AUS,IWEC Data,943120,-20.23,119.1,8,8,http://apps1.eere.energy.gov/buildings/energyplus/weatherdata/5_southwest_pacific_wmo_region_5/AUS_WA.Port.Hedland.943120_IWEC.zip
SANTA_MARIA,CA,USA,TMY2-23273,723940,34.9,-120.45,-8,72,http://apps1.eere.energy.gov/buildings/energyplus/weatherdata/4_north_and_central_america_wmo_region_4/1_usa/USA_CA_Santa.Maria.723940_TMY2.zip
Poughkeepsie Dutchess Co Ap,NY,USA,TMY3,725036,41.63,-73.88,-5,47,http://apps1.eere.energy.gov/buildings/energyplus/weatherdata/4_north_and_central_america_wmo_region_4/1_usa/USA_NY_Poughkeepsie-Dutchess.County.AP.725036_TMY3.zip
Palacios Municipal Ap,TX,USA,TMY3,722555,28.72,-96.25,-6,5,http://apps1.eere.energy.gov/buildings/energyplus/weatherdata/4_north_and_central_america_wmo_region_4/1_usa/USA_TX_Palacios.Muni.AP.722555_TMY3.zip
Cadillac Wexford Co Ap,MI,USA,TMY3,726384,44.28,-85.42,-5,396,http://apps1.eere.energy.gov/buildings/energyplus/weatherdata/4_north_and_central_america_wmo_region_4/1_usa/USA_MI_Cadillac-Wexford.County.AP.726384_TMY3.zip
LYON,-,FRA,IWEC Data,74810,45.73,5.08,1,240,http://apps1.eere.energy.gov/buildings/energyplus/weatherdata/6_europe_wmo_region_6/FRA_Lyon.074810_IWEC.zip
Chengde,Hebei,CHN,CSWD,544230,40.98,117.95,8,385.9,http://apps1.eere.energy.gov/buildings/energyplus/weatherdata/2_asia_wmo_region_2/CHN_Hebei.Chengde.544230_CSWD.zip
Rapid City,SD,USA,TMY--24090,726620,44.05,-103.07,-7,966,http://apps1.eere.energy.gov/buildings/energyplus/weatherdata/4_north_and_central_america_wmo_region_4/1_usa/USA_SD_Rapid.City.Rgnl.AP.726620_TMY.zip
Traverse City,MI,USA,TMY--14850,726387,44.73,-85.58,-5,190,http://apps1.eere.energy.gov/buildings/energyplus/weatherdata/4_north_and_central_america_wmo_region_4/1_usa/USA_MI_Traverse.City-Cherry.Capital.AP.726387_TMY.zip
Storm Lake,IA,USA,TMY3,725496,42.6,-95.23,-6,454,http://apps1.eere.energy.gov/buildings/energyplus/weatherdata/4_north_and_central_america_wmo_region_4/1_usa/USA_IA_Storm.Lake.Muni.AP.725496_TMY3.zip
Honolulu,HI,USA,TMY--22521,911820,21.35,-157.93,-10,5,http://apps1.eere.energy.gov/buildings/energyplus/weatherdata/4_north_and_central_america_wmo_region_4/1_usa/USA_HI_Honolulu.Intl.AP.911820_TMY.zip
Chicago Waukegan,IL,USA,TMY3,725347,42.42,-87.87,-6,222,http://apps1.eere.energy.gov/buildings/energyplus/weatherdata/4_north_and_central_america_wmo_region_4/1_usa/USA_IL_Waukegan.Rgnl.AP.725347_TMY3.zip
KNOXVILLE,TN,USA,TMY2-13891,723260,35.82,-83.98,-5,299,http://apps1.eere.energy.gov/buildings/energyplus/weatherdata/4_north_and_central_america_wmo_region_4/1_usa/USA_TN_Knoxville.723260_TMY2.zip
Midland/Odessa,TX,USA,TMY--23023,722650,31.95,-102.18,-6,872,http://apps1.eere.energy.gov/buildings/energyplus/weatherdata/4_north_and_central_america_wmo_region_4/1_usa/USA_TX_Midland.Intl.AP.722650_TMY.zip
Moline Quad City Intl Ap,IL,USA,TMY3,725440,41.47,-90.52,-6,180,http://apps1.eere.energy.gov/buildings/energyplus/weatherdata/4_north_and_central_america_wmo_region_4/1_usa/USA_IL_Moline-Quad.City.Intl.AP.725440_TMY3.zip
Caceres,-,ESP,SWEC,82610,39.47,-6.33,1,405,http://apps1.eere.energy.gov/buildings/energyplus/weatherdata/6_europe_wmo_region_6/ESP_Caceres.082610_SWEC.zip
Charleville Aero,QLD,AUS,RMY,945100,-26.42,146.27,10,303,http://apps1.eere.energy.gov/buildings/energyplus/weatherdata/5_southwest_pacific_wmo_region_5/AUS_QLD.Charleville.Aero.945100_RMY.zip
Waco,TX,USA,TMY--13959,722560,31.62,-97.22,-6,155,http://apps1.eere.energy.gov/buildings/energyplus/weatherdata/4_north_and_central_america_wmo_region_4/1_usa/USA_TX_Waco.Rgnl.AP.722560_TMY.zip
Newport News,VA,USA,TMY3,723086,37.13,-76.5,-5,13,http://apps1.eere.energy.gov/buildings/energyplus/weatherdata/4_north_and_central_america_wmo_region_4/1_usa/USA_VA_Newport.News.723086_TMY3.zip
Niagara Falls Af,NY,USA,TMY3,725287,43.1,-78.95,-5,180,http://apps1.eere.energy.gov/buildings/energyplus/weatherdata/4_north_and_central_america_wmo_region_4/1_usa/USA_NY_Niagara.Falls.Intl.AP.725287_TMY3.zip
Cedar City Municipal Ap,UT,USA,TMY3,724755,37.7,-113.1,-7,1703,http://apps1.eere.energy.gov/buildings/energyplus/weatherdata/4_north_and_central_america_wmo_region_4/1_usa/USA_UT_Cedar.City.Muni.AP.724755_TMY3.zip
Sioux Falls Foss Field,SD,USA,TMY3,726510,43.58,-96.75,-6,433,http://apps1.eere.energy.gov/buildings/energyplus/weatherdata/4_north_and_central_america_wmo_region_4/1_usa/USA_SD_Sioux.Falls-Foss.Field.726510_TMY3.zip
Windsor,ON,CAN,WYEC2-B-94810,715380,42.27,-82.97,-5,190,http://apps1.eere.energy.gov/buildings/energyplus/weatherdata/4_north_and_central_america_wmo_region_4/3_canada/CAN_ON_Windsor.715380_CWEC.zip
Granada,-,ESP,SWEC,84190,37.18,-3.78,1,559,http://apps1.eere.energy.gov/buildings/energyplus/weatherdata/6_europe_wmo_region_6/ESP_Granada.084190_SWEC.zip
Richmond,VA,USA,TMY--13740,724010,37.5,-77.33,-5,54,http://apps1.eere.energy.gov/buildings/energyplus/weatherdata/4_north_and_central_america_wmo_region_4/1_usa/USA_VA_Richmond.Intl.AP.724010_TMY.zip
Colorado Springs Muni Ap,CO,USA,TMY3,724660,38.82,-104.72,-7,1872,http://apps1.eere.energy.gov/buildings/energyplus/weatherdata/4_north_and_central_america_wmo_region_4/1_usa/USA_CO_Colorado.Springs-Peterson.Field.724660_TMY3.zip
Shenandoah Muni,IA,USA,TMY3,725467,40.75,-95.42,-6,296,http://apps1.eere.energy.gov/buildings/energyplus/weatherdata/4_north_and_central_america_wmo_region_4/1_usa/USA_IA_Shenandoah.Muni.AP.725467_TMY3.zip
KOLN,-,DEU,IWEC Data,105130,50.87,7.17,1,99,http://apps1.eere.energy.gov/buildings/energyplus/weatherdata/6_europe_wmo_region_6/DEU_Koln.105130_IWEC.zip
Limon,CO,USA,TMY3,724665,39.18,-103.72,-7,1695,http://apps1.eere.energy.gov/buildings/energyplus/weatherdata/4_north_and_central_america_wmo_region_4/1_usa/USA_CO_Limon.Muni.AP.724665_TMY3.zip
Tyndall Afb,FL,USA,TMY3,747750,30.07,-85.58,-6,7,http://apps1.eere.energy.gov/buildings/energyplus/weatherdata/4_north_and_central_america_wmo_region_4/1_usa/USA_FL_Tyndall.AFB.747750_TMY3.zip
Manitowac Muni Awos,WI,USA,TMY3,726455,44.13,-87.68,-6,198,http://apps1.eere.energy.gov/buildings/energyplus/weatherdata/4_north_and_central_america_wmo_region_4/1_usa/USA_WI_Manitowac.Muni.AWOS.726455_TMY3.zip
Xinghai,Qinghai,CHN,CSWD,529430,35.58,99.98,8,3323.2,http://apps1.eere.energy.gov/buildings/energyplus/weatherdata/2_asia_wmo_region_2/CHN_Qinghai.Xinghai.529430_CSWD.zip
Hilo International Ap,HI,USA,TMY3,912850,19.72,-155.05,-10,9,http://apps1.eere.energy.gov/buildings/energyplus/weatherdata/4_north_and_central_america_wmo_region_4/1_usa/USA_HI_Hilo.Intl.AP.912850_TMY3.zip
GREAT_FALLS,MT,USA,TMY2-24143,727755,47.48,-111.37,-7,1116,http://apps1.eere.energy.gov/buildings/energyplus/weatherdata/4_north_and_central_america_wmo_region_4/1_usa/USA_MT_Great.Falls.727755_TMY2.zip
TUOTUOHE/TANGGULASH,-,CHN,SWERA,560040,34.22,92.43,8,4535,http://apps1.eere.energy.gov/buildings/energyplus/weatherdata/2_asia_wmo_region_2/CHN_Qinghai.Tuotuohe.560040_SWERA.zip
Huslia,AK,USA,TMY3,702225,65.7,-156.38,-9,55,http://apps1.eere.energy.gov/buildings/energyplus/weatherdata/4_north_and_central_america_wmo_region_4/1_usa/USA_AK_Huslia.702225_TMY3.zip
Otis Angb,MA,USA,TMY3,725060,41.65,-70.52,-5,40,http://apps1.eere.energy.gov/buildings/energyplus/weatherdata/4_north_and_central_america_wmo_region_4/1_usa/USA_MA_Otis.ANGB.725060_TMY3.zip
Caribou,ME,USA,TMY--14607,727120,46.87,-68.02,-5,190,http://apps1.eere.energy.gov/buildings/energyplus/weatherdata/4_north_and_central_america_wmo_region_4/1_usa/USA_ME_Caribou.Muni.AP.727120_TMY.zip
SAO PAULO,-,BRA,IWEC Data,837800,-23.62,-46.65,-3,803,http://apps1.eere.energy.gov/buildings/energyplus/weatherdata/3_south_america_wmo_region_3/BRA_Sao.Paulo.837800_IWEC.zip
Louisville Standiford Field,KY,USA,TMY3,724230,38.18,-85.73,-5,147,http://apps1.eere.energy.gov/buildings/energyplus/weatherdata/4_north_and_central_america_wmo_region_4/1_usa/USA_KY_Louisville-Standiford.Field.724230_TMY3.zip
Ballarat Aerodrome,VIC,AUS,RMY,948520,-37.52,143.78,10,436,http://apps1.eere.energy.gov/buildings/energyplus/weatherdata/5_southwest_pacific_wmo_region_5/AUS_VIC.Ballarat.Aerodrome.948520_RMY.zip
AUGHTON,-,GBR,IWEC Data,33220,53.55,-2.92,0,56,http://apps1.eere.energy.gov/buildings/energyplus/weatherdata/6_europe_wmo_region_6/GBR_Aughton.033220_IWEC.zip
Kalgoorlie-Boulder Air,WA,AUS,RMY,946370,-30.78,121.45,8,370,http://apps1.eere.energy.gov/buildings/energyplus/weatherdata/5_southwest_pacific_wmo_region_5/AUS_WA.Kalgoorlie-Boulder.Airport.946370_RMY.zip
Launceston Airport,TAS,AUS,RMY,949680,-41.53,147.2,10,178,http://apps1.eere.energy.gov/buildings/energyplus/weatherdata/5_southwest_pacific_wmo_region_5/AUS_TAS.Launceston.Airport.949680_RMY.zip
Adirondack Rgnl,NY,USA,TMY3,726228,44.38,-74.2,-5,520,http://apps1.eere.energy.gov/buildings/energyplus/weatherdata/4_north_and_central_america_wmo_region_4/1_usa/USA_NY_Saranac.Lake-Adirondack.Rgnl.AP.726228_TMY3.zip
Jaipur,Rajasthan,IND,ISHRAE,423480,26.82,75.8,5.5,390,http://apps1.eere.energy.gov/buildings/energyplus/weatherdata/2_asia_wmo_region_2/IND_Jaipur.423480_ISHRAE.zip
Jarud Qi,Nei Mongol,CHN,CSWD,540260,44.57,120.9,8,265,http://apps1.eere.energy.gov/buildings/energyplus/weatherdata/2_asia_wmo_region_2/CHN_Nei.Mongol.Jarud.Qi.540260_CSWD.zip
NAIROBI/WILSON,-,KEN,SWERA,637400,-1.32,36.82,3,1679,http://apps1.eere.energy.gov/buildings/energyplus/weatherdata/1_africa_wmo_region_1/KEN_Nairobi-Wilson.637420_SWERA.zip
Litang,Sichuan,CHN,CSWD,562570,30,100.27,8,3948.9,http://apps1.eere.energy.gov/buildings/energyplus/weatherdata/2_asia_wmo_region_2/CHN_Sichuan.Litang.562570_CSWD.zip
Kotzebue Ralph Wein Memorial,AK,USA,TMY3,701330,66.88,-162.6,-9,3,http://apps1.eere.energy.gov/buildings/energyplus/weatherdata/4_north_and_central_america_wmo_region_4/1_usa/USA_AK_Kotzebue-Ralph.Wein.Mem.AP.701330_TMY3.zip
PUEBLO,CO,USA,TMY2-93058,724640,38.28,-104.52,-7,1439,http://apps1.eere.energy.gov/buildings/energyplus/weatherdata/4_north_and_central_america_wmo_region_4/1_usa/USA_CO_Pueblo.724640_TMY2.zip
Mcalester Municipal Ap,OK,USA,TMY3,723566,34.9,-95.78,-6,232,http://apps1.eere.energy.gov/buildings/energyplus/weatherdata/4_north_and_central_america_wmo_region_4/1_usa/USA_OK_McAlester.Rgnl.AP.723566_TMY3.zip
LUBBOCK,TX,USA,TMY2-23042,722670,33.65,-101.82,-6,988,http://apps1.eere.energy.gov/buildings/energyplus/weatherdata/4_north_and_central_america_wmo_region_4/1_usa/USA_TX_Lubbock.722670_TMY2.zip
Sherman-Denison,TX,USA,TMY--13923,722541,33.72,-96.67,-6,233,http://apps1.eere.energy.gov/buildings/energyplus/weatherdata/4_north_and_central_america_wmo_region_4/1_usa/USA_TX_Sherman-Perrin.AFB.722541_TMY.zip
Marthas Vineyard,MA,USA,TMY3,725066,41.4,-70.62,-5,21,http://apps1.eere.energy.gov/buildings/energyplus/weatherdata/4_north_and_central_america_wmo_region_4/1_usa/USA_MA_Marthas.Vineyard.AP.725066_TMY3.zip
Allentown Lehigh Valley Intl,PA,USA,TMY3,725170,40.65,-75.45,-5,119,http://apps1.eere.energy.gov/buildings/energyplus/weatherdata/4_north_and_central_america_wmo_region_4/1_usa/USA_PA_Allentown-Lehigh.Valley.Intl.AP.725170_TMY3.zip
Sholapur,Maharashtra,IND,ISHRAE,431170,17.67,75.9,5.5,479,http://apps1.eere.energy.gov/buildings/energyplus/weatherdata/2_asia_wmo_region_2/IND_Sholapur.431170_ISHRAE.zip
CUZCO,-,PER,IWEC Data,846860,-13.55,-71.98,-5,3249,http://apps1.eere.energy.gov/buildings/energyplus/weatherdata/3_south_america_wmo_region_3/PER_Cuzco.846860_IWEC.zip
STOCKHOLM_ ARLANDA,-,SWE,IWEC Data,24600,59.65,17.95,1,61,http://apps1.eere.energy.gov/buildings/energyplus/weatherdata/6_europe_wmo_region_6/SWE_Stockholm.Arlanda.024600_IWEC.zip
Leesburg Godfrey,VA,USA,TMY3,724055,39.08,-77.57,-5,119,http://apps1.eere.energy.gov/buildings/energyplus/weatherdata/4_north_and_central_america_wmo_region_4/1_usa/USA_VA_Leesburg.Muni.AP-Godfrey.Field.724055_TMY3.zip
Thunder Bay,ON,CAN,WYEC2-B-94804,717490,48.37,-89.32,-5,199,http://apps1.eere.energy.gov/buildings/energyplus/weatherdata/4_north_and_central_america_wmo_region_4/3_canada/CAN_ON_Thunder.Bay.717490_CWEC.zip
HANOI,-,VNM,IWEC Data,488200,21.02,105.8,7,6,http://apps1.eere.energy.gov/buildings/energyplus/weatherdata/2_asia_wmo_region_2/VNM_Hanoi.488200_IWEC.zip
Climate Zone 8,CA,USA,CTZRV2,690140,33.6,-117.7,-8,117,http://apps1.eere.energy.gov/buildings/energyplus/weatherdata/4_north_and_central_america_wmo_region_4/2_california_climate_zones/CZ08RV2.zip
Hanzhong,Shaanxi,CHN,CSWD,571270,33.07,107.03,8,509.5,http://apps1.eere.energy.gov/buildings/energyplus/weatherdata/2_asia_wmo_region_2/CHN_Shaanxi.Hanzhong.571270_CSWD.zip
Austin Muni,MN,USA,TMY3,727566,43.67,-92.93,-6,375,http://apps1.eere.energy.gov/buildings/energyplus/weatherdata/4_north_and_central_america_wmo_region_4/1_usa/USA_MN_Austin.Muni.AP.727566_TMY3.zip
Lone Rock Faa Ap,WI,USA,TMY3,726416,43.2,-90.18,-6,219,http://apps1.eere.energy.gov/buildings/energyplus/weatherdata/4_north_and_central_america_wmo_region_4/1_usa/USA_WI_Lone.Rock.AP.726416_TMY3.zip
Cherry Point Mcas,NC,USA,TMY3,723090,34.9,-76.88,-5,11,http://apps1.eere.energy.gov/buildings/energyplus/weatherdata/4_north_and_central_america_wmo_region_4/1_usa/USA_NC_Cherry.Point.MCAS.723090_TMY3.zip
Kaiser Mem  Awos,MO,USA,TMY3,724459,38.1,-92.55,-6,265,http://apps1.eere.energy.gov/buildings/energyplus/weatherdata/4_north_and_central_america_wmo_region_4/1_usa/USA_MO_Kaiser-Lee.Fine.Mem.AWOS.724459_TMY3.zip
Maxwell Afb,AL,USA,TMY3,722265,32.38,-86.35,-6,53,http://apps1.eere.energy.gov/buildings/energyplus/weatherdata/4_north_and_central_america_wmo_region_4/1_usa/USA_AL_Maxwell.AFB.722265_TMY3.zip
Lansing Capital City Arpt,MI,USA,TMY3,725390,42.78,-84.58,-5,256,http://apps1.eere.energy.gov/buildings/energyplus/weatherdata/4_north_and_central_america_wmo_region_4/1_usa/USA_MI_Lansing-Capital.City.AP.725390_TMY3.zip
Pianosa,-,ITA,IGDG,-,42.58,10.1,1,27,http://apps1.eere.energy.gov/buildings/energyplus/weatherdata/6_europe_wmo_region_6/ITA_Pianosa_IGDG.zip
Tacoma Narrows,WA,USA,TMY3,727938,47.27,-122.58,-8,91,http://apps1.eere.energy.gov/buildings/energyplus/weatherdata/4_north_and_central_america_wmo_region_4/1_usa/USA_WA_Tacoma.Narrows.AP.727938_TMY3.zip
Yumenzhen,Gansu,CHN,CSWD,524360,40.27,97.03,8,1526,http://apps1.eere.energy.gov/buildings/energyplus/weatherdata/2_asia_wmo_region_2/CHN_Gansu.Yumenzhen.524360_CSWD.zip
MINNEAPOLIS,MN,USA,TMY2-14922,726580,44.88,-93.22,-6,255,http://apps1.eere.energy.gov/buildings/energyplus/weatherdata/4_north_and_central_america_wmo_region_4/1_usa/USA_MN_Minneapolis-St.Paul.726580_TMY2.zip
Palmdale Airport,CA,USA,TMY3,723820,34.63,-118.08,-8,769,http://apps1.eere.energy.gov/buildings/energyplus/weatherdata/4_north_and_central_america_wmo_region_4/1_usa/USA_CA_Palmdale.AP.723820_TMY3.zip
Asyut,Asyut,EGY,ETMY,623930,27.05,31.02,2,70,http://apps1.eere.energy.gov/buildings/energyplus/weatherdata/1_africa_wmo_region_1/EGY_Asyut.623930_ETMY.zip
Sulejow,-,POL,IMGW,124690,51.37,19.88,1,189,http://apps1.eere.energy.gov/buildings/energyplus/weatherdata/6_europe_wmo_region_6/POL_Sulejow.124690_IMGW.zip
Zhangwu,Liaoning,CHN,CSWD,542360,42.42,122.53,8,79.4,http://apps1.eere.energy.gov/buildings/energyplus/weatherdata/2_asia_wmo_region_2/CHN_Liaoning.Zhangwu.542360_CSWD.zip
Killeen Muni  Awos,TX,USA,TMY3,722575,31.08,-97.68,-6,258,http://apps1.eere.energy.gov/buildings/energyplus/weatherdata/4_north_and_central_america_wmo_region_4/1_usa/USA_TX_Killeen.Muni.AWOS.722575_TMY3.zip
La Coruna,-,ESP,SWEC,80010,43.37,-8.42,1,67,http://apps1.eere.energy.gov/buildings/energyplus/weatherdata/6_europe_wmo_region_6/ESP_La.Coruna.080010_SWEC.zip
March Afb,CA,USA,TMY3,722860,33.9,-117.25,-8,462,http://apps1.eere.energy.gov/buildings/energyplus/weatherdata/4_north_and_central_america_wmo_region_4/1_usa/USA_CA_March.AFB.722860_TMY3.zip
Prince George,BC,CAN,WYEC2-B-25206,718960,53.88,-122.68,-8,691,http://apps1.eere.energy.gov/buildings/energyplus/weatherdata/4_north_and_central_america_wmo_region_4/3_canada/CAN_BC_Prince.George.718960_CWEC.zip
ST_PAUL_IS.,AK,USA,TMY2-25713,703080,57.15,-170.22,-10,7,http://apps1.eere.energy.gov/buildings/energyplus/weatherdata/4_north_and_central_america_wmo_region_4/1_usa/USA_AK_St.Paul.Island.703080_TMY2.zip
Mandurah,WA,AUS,RMY,946050,-32.52,115.72,8,4,http://apps1.eere.energy.gov/buildings/energyplus/weatherdata/5_southwest_pacific_wmo_region_5/AUS_WA.Mandurah.946050_RMY.zip
Manchester Airport,NH,USA,TMY3,743945,42.93,-71.43,-5,69,http://apps1.eere.energy.gov/buildings/energyplus/weatherdata/4_north_and_central_america_wmo_region_4/1_usa/USA_NH_Manchester.Muni.AP.743945_TMY3.zip
Ponca City Municipal Ap  Sgp,OK,USA,TMY3,723546,36.61,-97.49,-6,318,http://apps1.eere.energy.gov/buildings/energyplus/weatherdata/4_north_and_central_america_wmo_region_4/1_usa/USA_OK_Ponca.City.Muni.AP.723546_TMY3.zip
Climate Zone 16,CA,USA,CTZRV2,725957,41.3,-122.3,-8,1080,http://apps1.eere.energy.gov/buildings/energyplus/weatherdata/4_north_and_central_america_wmo_region_4/2_california_climate_zones/CZ16RV2.zip
Tulsa,OK,USA,TMY--13968,723560,36.2,-95.9,-6,206,http://apps1.eere.energy.gov/buildings/energyplus/weatherdata/4_north_and_central_america_wmo_region_4/1_usa/USA_OK_Tulsa.Intl.AP.723560_TMY.zip
CASABLANCA/NOUASSER,-,MAR,IWEC Data,601560,33.37,-7.58,0,206,http://apps1.eere.energy.gov/buildings/energyplus/weatherdata/1_africa_wmo_region_1/MAR_Casablanca.Nouasser.601560_IWEC.zip
Dubbo Airport,NSW,AUS,RMY,957190,-32.22,148.57,10,285,http://apps1.eere.energy.gov/buildings/energyplus/weatherdata/5_southwest_pacific_wmo_region_5/AUS_NSW.Dubbo.Airport.957190_RMY.zip
Riverside Muni,CA,USA,TMY3,722869,33.95,-117.45,-8,256,http://apps1.eere.energy.gov/buildings/energyplus/weatherdata/4_north_and_central_america_wmo_region_4/1_usa/USA_CA_Riverside.Muni.AP.722869_TMY3.zip
Long Beach Daugherty Fld,CA,USA,TMY3,722970,33.83,-118.17,-8,8,http://apps1.eere.energy.gov/buildings/energyplus/weatherdata/4_north_and_central_america_wmo_region_4/1_usa/USA_CA_Long.Beach-Daugherty.Field.722970_TMY3.zip
Yanan,Shaanxi,CHN,CSWD,538450,36.6,109.5,8,958.5,http://apps1.eere.energy.gov/buildings/energyplus/weatherdata/2_asia_wmo_region_2/CHN_Shaanxi.Yanan.538450_CSWD.zip
Mitchell  Awos,SD,USA,TMY3,726545,43.77,-98.03,-6,397,http://apps1.eere.energy.gov/buildings/energyplus/weatherdata/4_north_and_central_america_wmo_region_4/1_usa/USA_SD_Mitchell.AWOS.726545_TMY3.zip
Arxan,Nei Mongol,CHN,CSWD,507270,47.17,119.93,8,997.2,http://apps1.eere.energy.gov/buildings/energyplus/weatherdata/2_asia_wmo_region_2/CHN_Nei.Mongol.Arxan.507270_CSWD.zip
WACO,TX,USA,TMY2-13959,722560,31.62,-97.22,-6,155,http://apps1.eere.energy.gov/buildings/energyplus/weatherdata/4_north_and_central_america_wmo_region_4/1_usa/USA_TX_Waco.722560_TMY2.zip
Oscoda Wurtsmith Afb,MI,USA,TMY3,726395,44.45,-83.4,-5,188,http://apps1.eere.energy.gov/buildings/energyplus/weatherdata/4_north_and_central_america_wmo_region_4/1_usa/USA_MI_Oscoda-Wurtsmith.AFB.726395_TMY3.zip
Fort Wayne,IN,USA,TMY--14827,725330,41,-85.2,-5,252,http://apps1.eere.energy.gov/buildings/energyplus/weatherdata/4_north_and_central_america_wmo_region_4/1_usa/USA_IN_Fort.Wayne.Intl.AP.725330_TMY.zip
Tianshui,Gansu,CHN,CSWD,570060,34.58,105.75,8,1141.7,http://apps1.eere.energy.gov/buildings/energyplus/weatherdata/2_asia_wmo_region_2/CHN_Gansu.Tianshui.570060_CSWD.zip
GUANGZHOU,-,CHN,IWEC Data,592870,23.13,113.32,8,8,http://apps1.eere.energy.gov/buildings/energyplus/weatherdata/2_asia_wmo_region_2/CHN_Guangdong.Guangzhou.592870_IWEC.zip
MIAMI,FL,USA,TMY2-12839,722020,25.8,-80.27,-5,2,http://apps1.eere.energy.gov/buildings/energyplus/weatherdata/4_north_and_central_america_wmo_region_4/1_usa/USA_FL_Miami.722020_TMY2.zip
Evansville,IN,USA,TMY--93817,724320,38.05,-87.53,-5,118,http://apps1.eere.energy.gov/buildings/energyplus/weatherdata/4_north_and_central_america_wmo_region_4/1_usa/USA_IN_Evansville.Rgnl.AP.724320_TMY.zip
Falls City Brenner,NE,USA,TMY3,725533,40.08,-95.6,-6,300,http://apps1.eere.energy.gov/buildings/energyplus/weatherdata/4_north_and_central_america_wmo_region_4/1_usa/USA_NE_Falls.City-Brenner.Field.725533_TMY3.zip
OMSK,-,RUS,IWEC Data,286980,54.93,73.4,6,123,http://apps1.eere.energy.gov/buildings/energyplus/weatherdata/2_asia_wmo_region_2/RUS_Omsk.286980_IWEC.zip
Crane Lake  Awos,MN,USA,TMY3,727473,46.27,-92.57,-6,350,http://apps1.eere.energy.gov/buildings/energyplus/weatherdata/4_north_and_central_america_wmo_region_4/1_usa/USA_MN_Crane.Lake.AWOS.727473_TMY3.zip
Roma-Ciampino,-,ITA,IGDG,162390,41.8,12.58,1,131,http://apps1.eere.energy.gov/buildings/energyplus/weatherdata/6_europe_wmo_region_6/ITA_Roma-Ciampino.162390_IGDG.zip
La Grande Muni Ap,OR,USA,TMY3,726884,45.28,-118,-8,827,http://apps1.eere.energy.gov/buildings/energyplus/weatherdata/4_north_and_central_america_wmo_region_4/1_usa/USA_OR_La.Grande.Muni.AP.726884_TMY3.zip
SHANGHAI/HONGQIAO,-,CHN,SWERA,583620,31.17,121.43,8,7,http://apps1.eere.energy.gov/buildings/energyplus/weatherdata/2_asia_wmo_region_2/CHN_Shanghai.Shanghai.583620_SWERA.zip
Springfield,IL,USA,TMY--93822,724390,39.85,-89.67,-6,187,http://apps1.eere.energy.gov/buildings/energyplus/weatherdata/4_north_and_central_america_wmo_region_4/1_usa/USA_IL_Springfield-Capital.AP.724390_TMY.zip
Heyuan,Guangdong,CHN,CSWD,592930,23.73,114.68,8,40.6,http://apps1.eere.energy.gov/buildings/energyplus/weatherdata/2_asia_wmo_region_2/CHN_Guangdong.Heyuan.592930_CSWD.zip
Savoonga,AK,USA,TMY3,702035,63.68,-170.5,-9,17,http://apps1.eere.energy.gov/buildings/energyplus/weatherdata/4_north_and_central_america_wmo_region_4/1_usa/USA_AK_Savoonga.702035_TMY3.zip
Peoria Greater Peoria Ap,IL,USA,TMY3,725320,40.67,-89.68,-6,199,http://apps1.eere.energy.gov/buildings/energyplus/weatherdata/4_north_and_central_america_wmo_region_4/1_usa/USA_IL_Peoria-Greater.Peoria.AP.725320_TMY3.zip
Fairmont Muni Awos,MN,USA,TMY3,726586,43.65,-94.42,-6,354,http://apps1.eere.energy.gov/buildings/energyplus/weatherdata/4_north_and_central_america_wmo_region_4/1_usa/USA_MN_Fairmont.Muni.AWOS.726586_TMY3.zip
Gulfport Biloxi Int,MS,USA,TMY3,747685,30.4,-89.07,-6,9,http://apps1.eere.energy.gov/buildings/energyplus/weatherdata/4_north_and_central_america_wmo_region_4/1_usa/USA_MS_Gulfport-Biloxi.Intl.AP.747685_TMY3.zip
Yanzhou,Shandong,CHN,CSWD,549160,35.57,116.85,8,51.7,http://apps1.eere.energy.gov/buildings/energyplus/weatherdata/2_asia_wmo_region_2/CHN_Shandong.Yanzhou.549160_CSWD.zip
TELA,-,HND,SWERA,787060,15.72,-87.48,-6,3,http://apps1.eere.energy.gov/buildings/energyplus/weatherdata/4_north_and_central_america_wmo_region_4/HND_Tela.787060_SWERA.zip
Univ Of Illinois Wi  Bondville,IL,USA,TMY3,725315,40.06,-88.37,-6,213,http://apps1.eere.energy.gov/buildings/energyplus/weatherdata/4_north_and_central_america_wmo_region_4/1_usa/USA_IL_University.of.Illinois-Willard.AP.725315_TMY3.zip
Shenyang,Liaoning,CHN,CSWD,543420,41.73,123.45,8,44.7,http://apps1.eere.energy.gov/buildings/energyplus/weatherdata/2_asia_wmo_region_2/CHN_Liaoning.Shenyang.543420_CSWD.zip
Delta,UT,USA,TMY3,724795,39.33,-112.58,-7,1414,http://apps1.eere.energy.gov/buildings/energyplus/weatherdata/4_north_and_central_america_wmo_region_4/1_usa/USA_UT_Delta.Muni.AP.724795_TMY3.zip
Apalachicola,FL,USA,TMY--12832,722200,29.73,-85.03,-5,6,http://apps1.eere.energy.gov/buildings/energyplus/weatherdata/4_north_and_central_america_wmo_region_4/1_usa/USA_FL_Apalachicola.722200_TMY.zip
Cozzo Spadaro,-,ITA,IGDG,164800,36.68,15.13,1,51,http://apps1.eere.energy.gov/buildings/energyplus/weatherdata/6_europe_wmo_region_6/ITA_Cozzo.Spadaro.164800_IGDG.zip
Yunxi,Hubei,CHN,CSWD,572510,33,110.42,8,249.1,http://apps1.eere.energy.gov/buildings/energyplus/weatherdata/2_asia_wmo_region_2/CHN_Hubei.Yunxi.572510_CSWD.zip
Mascot-Sydney Airport,NSW,AUS,RMY,947670,-33.93,151.17,10,5,http://apps1.eere.energy.gov/buildings/energyplus/weatherdata/5_southwest_pacific_wmo_region_5/AUS_NSW.Mascot-Sydney.Airport.947670_RMY.zip
LANZHOU,-,CHN,SWERA,528890,36.05,103.88,8,1518,http://apps1.eere.energy.gov/buildings/energyplus/weatherdata/2_asia_wmo_region_2/CHN_Gansu.Lanzhou.528890_SWERA.zip
Tonopah,NV,USA,TMY--23153,724855,38.05,-117.08,-8,1654,http://apps1.eere.energy.gov/buildings/energyplus/weatherdata/4_north_and_central_america_wmo_region_4/1_usa/USA_NV_Tonopah.AP.724855_TMY.zip
VARNA,-,BGR,IWEC Data,155520,43.2,27.92,2,43,http://apps1.eere.energy.gov/buildings/energyplus/weatherdata/6_europe_wmo_region_6/BGR_Varna.155520_IWEC.zip
Salem,OR,USA,TMY--24232,726940,44.92,-123,-8,61,http://apps1.eere.energy.gov/buildings/energyplus/weatherdata/4_north_and_central_america_wmo_region_4/1_usa/USA_OR_Salem-McNary.Field.726940_TMY.zip
NEW_ORLEANS,LA,USA,TMY2-12916,722315,29.98,-90.25,-6,3,http://apps1.eere.energy.gov/buildings/energyplus/weatherdata/4_north_and_central_america_wmo_region_4/1_usa/USA_LA_New.Orleans.722315_TMY2.zip
Santander,-,ESP,SWEC,80230,43.47,-3.82,1,65,http://apps1.eere.energy.gov/buildings/energyplus/weatherdata/6_europe_wmo_region_6/ESP_Santander.080230_SWEC.zip
ROANOKE,VA,USA,TMY2-13741,724110,37.32,-79.97,-5,358,http://apps1.eere.energy.gov/buildings/energyplus/weatherdata/4_north_and_central_america_wmo_region_4/1_usa/USA_VA_Roanoke.724110_TMY2.zip
Napoli-Capodichino,-,ITA,IGDG,162890,40.85,14.3,1,72,http://apps1.eere.energy.gov/buildings/energyplus/weatherdata/6_europe_wmo_region_6/ITA_Napoli-Capodichino.162890_IGDG.zip
Xuzhou,Jiangsu,CHN,CSWD,580270,34.28,117.15,8,41.2,http://apps1.eere.energy.gov/buildings/energyplus/weatherdata/2_asia_wmo_region_2/CHN_Jiangsu.Xuzhou.580270_CSWD.zip
AMARILLO,TX,USA,TMY2-23047,723630,35.23,-101.7,-6,1098,http://apps1.eere.energy.gov/buildings/energyplus/weatherdata/4_north_and_central_america_wmo_region_4/1_usa/USA_TX_Amarillo.723630_TMY2.zip
HUADE,-,CHN,SWERA,533910,41.9,114,8,1484,http://apps1.eere.energy.gov/buildings/energyplus/weatherdata/2_asia_wmo_region_2/CHN_Nei.Mongol.Huade.533910_SWERA.zip
Missoula International Ap,MT,USA,TMY3,727730,46.92,-114.1,-7,973,http://apps1.eere.energy.gov/buildings/energyplus/weatherdata/4_north_and_central_america_wmo_region_4/1_usa/USA_MT_Missoula.Intl.AP.727730_TMY3.zip
Olbia-Costa Smeralda,-,ITA,IGDG,165310,40.93,8.5,1,10,http://apps1.eere.energy.gov/buildings/energyplus/weatherdata/6_europe_wmo_region_6/ITA_Olbia-Costa.Smeralda.165310_IGDG.zip
Siedlce,-,POL,IMGW,123850,52.17,22.3,1,155,http://apps1.eere.energy.gov/buildings/energyplus/weatherdata/6_europe_wmo_region_6/POL_Siedlce.123850_IMGW.zip
Baie Comeau,PQ,CAN,WYEC2-B-14627,711870,49.13,-68.2,-5,22,http://apps1.eere.energy.gov/buildings/energyplus/weatherdata/4_north_and_central_america_wmo_region_4/3_canada/CAN_PQ_Baie.Comeau.711870_CWEC.zip
Warrnambool Airport,VIC,AUS,RMY,948370,-38.28,142.45,10,71,http://apps1.eere.energy.gov/buildings/energyplus/weatherdata/5_southwest_pacific_wmo_region_5/AUS_VIC.Warrnambool.Airport.948370_RMY.zip
JACKSONVILLE,FL,USA,TMY2-13889,722060,30.5,-81.7,-5,9,http://apps1.eere.energy.gov/buildings/energyplus/weatherdata/4_north_and_central_america_wmo_region_4/1_usa/USA_FL_Jacksonville.722060_TMY2.zip
Olsztyn,-,POL,IMGW,122720,53.78,20.48,1,137,http://apps1.eere.energy.gov/buildings/energyplus/weatherdata/6_europe_wmo_region_6/POL_Olsztyn.122720_IMGW.zip
Dunhuang,Gansu,CHN,CSWD,524180,40.15,94.68,8,1139,http://apps1.eere.energy.gov/buildings/energyplus/weatherdata/2_asia_wmo_region_2/CHN_Gansu.Dunhuang.524180_CSWD.zip
Blue Canyon Ap,CA,USA,TMY3,725845,39.3,-120.72,-8,1609,http://apps1.eere.energy.gov/buildings/energyplus/weatherdata/4_north_and_central_america_wmo_region_4/1_usa/USA_CA_Blue.Canyon.AP.725845_TMY3.zip
Norfolk Karl Stefan Mem Arpt,NE,USA,TMY3,725560,41.98,-97.43,-6,472,http://apps1.eere.energy.gov/buildings/energyplus/weatherdata/4_north_and_central_america_wmo_region_4/1_usa/USA_NE_Norfolk-Karl.Stefan.Mem.AP.725560_TMY3.zip
Bengbu,Anhui,CHN,CSWD,582210,32.95,117.38,8,18.7,http://apps1.eere.energy.gov/buildings/energyplus/weatherdata/2_asia_wmo_region_2/CHN_Anhui.Bengbu.582210_CSWD.zip
Grand Rapids Awos,MN,USA,TMY3,727458,47.22,-93.52,-6,413,http://apps1.eere.energy.gov/buildings/energyplus/weatherdata/4_north_and_central_america_wmo_region_4/1_usa/USA_MN_Grand.Rapids.AWOS.727458_TMY3.zip
STRASBOURG,-,FRA,IWEC Data,71900,48.55,7.63,1,154,http://apps1.eere.energy.gov/buildings/energyplus/weatherdata/6_europe_wmo_region_6/FRA_Strasbourg.071900_IWEC.zip
International Falls Intl Ap,MN,USA,TMY3,727470,48.57,-93.4,-6,359,http://apps1.eere.energy.gov/buildings/energyplus/weatherdata/4_north_and_central_america_wmo_region_4/1_usa/USA_MN_International.Falls.Intl.AP.727470_TMY3.zip
NANJING/NANKING,-,CHN,SWERA,582380,32,118.8,8,12,http://apps1.eere.energy.gov/buildings/energyplus/weatherdata/2_asia_wmo_region_2/CHN_Jiangxi.Nanjing.582380_SWERA.zip
GREENVILLE,SC,USA,TMY2-03870,723120,34.9,-82.22,-5,296,http://apps1.eere.energy.gov/buildings/energyplus/weatherdata/4_north_and_central_america_wmo_region_4/1_usa/USA_SC_Greenville-Spartanburg.723120_TMY2.zip
EJIN_QI,-,CHN,SWERA,522670,41.95,101.07,8,941,http://apps1.eere.energy.gov/buildings/energyplus/weatherdata/2_asia_wmo_region_2/CHN_Nei.Mongol.Ejin.Qi.522670_SWERA.zip
NYINGCHI,-,CHN,SWERA,563120,29.57,94.47,8,3001,http://apps1.eere.energy.gov/buildings/energyplus/weatherdata/2_asia_wmo_region_2/CHN_Tibet.Nyingchi.563120_SWERA.zip
Hezuo,Gansu,CHN,CSWD,560800,35,102.9,8,2910,http://apps1.eere.energy.gov/buildings/energyplus/weatherdata/2_asia_wmo_region_2/CHN_Gansu.Hezuo.560800_CSWD.zip
La Ceiba/Goloson,-,HND,SWERA,787050,15.73,-86.87,-6,3,http://apps1.eere.energy.gov/buildings/energyplus/weatherdata/4_north_and_central_america_wmo_region_4/HND_La.Ceiba-Goloson.787050_SWERA.zip
